City_ID,City,Lat,Lng,Max Temp,Humidity,Cloudiness,Wind Speed,Country,Date
0,edinburgh of the seven seas,-37.0676,-12.3116,55.87,67,99,23.82,SH,2023-06-06 16:16:57
1,acarau,-2.8856,-40.12,79.59,79,0,11.45,BR,2023-06-06 16:25:38
2,waitangi,-43.9535,-176.5597,51.82,95,100,1.01,NZ,2023-06-06 16:17:08
3,gaigeturi,33.4644,126.3183,59.05,88,0,5.75,KR,2023-06-06 16:25:38
4,yellowknife,62.456,-114.3525,54.12,94,75,16.11,CA,2023-06-06 16:16:55
5,zhangye,38.9342,100.4517,63.97,30,100,1.12,CN,2023-06-06 16:25:39
6,aykhal,66.0,111.5,35.49,67,2,7.67,RU,2023-06-06 16:25:39
7,faya-largeau,17.9257,19.1043,89.58,31,7,12.57,TD,2023-06-06 16:25:40
8,haiku-pauwela,20.9219,-156.3051,80.62,65,40,24.16,US,2023-06-06 16:25:40
9,ust-nera,64.5667,143.2,46.8,88,100,8.59,RU,2023-06-06 16:25:40
10,firmat,-33.4594,-61.4832,69.91,87,98,6.8,AR,2023-06-06 16:25:40
11,weyburn,49.6668,-103.8511,89.82,25,94,8.05,CA,2023-06-06 16:24:08
12,weno,7.4515,151.8468,80.55,89,75,0.0,FM,2023-06-06 16:25:41
13,hasaki,35.7333,140.8333,66.22,90,94,6.73,JP,2023-06-06 16:25:41
14,thompson,55.7435,-97.8558,71.76,83,75,3.44,CA,2023-06-06 16:17:40
15,inhambane,-23.865,35.3833,72.27,87,0,6.4,MZ,2023-06-06 16:16:58
16,longyearbyen,78.2186,15.6401,39.04,70,20,11.5,SJ,2023-06-06 16:18:12
17,bako,5.7833,36.5667,64.76,74,63,4.63,ET,2023-06-06 16:25:42
18,port-aux-francais,-49.35,70.2167,35.56,89,100,23.38,TF,2023-06-06 16:25:42
19,grand forks,47.9417,-97.4337,89.53,40,0,10.36,US,2023-06-06 16:25:43
20,punta arenas,-53.15,-70.9167,41.11,81,40,13.8,CL,2023-06-06 16:17:49
21,mejit,10.2753,170.8646,81.81,84,35,19.08,MH,2023-06-06 16:25:43
22,palikir - national government center,6.9248,158.1611,79.54,89,100,0.0,FM,2023-06-06 16:17:27
23,sale,34.0389,-6.8166,72.28,94,75,0.0,MA,2023-06-06 16:24:44
24,yuzhno-kurilsk,44.0306,145.8556,52.27,93,100,3.31,RU,2023-06-06 16:18:13
25,ushuaia,-54.8,-68.3,40.66,87,40,21.85,AR,2023-06-06 16:13:55
26,barczewo,53.8306,20.6911,61.0,61,93,5.61,PL,2023-06-06 16:25:44
27,st. john's,47.5649,-52.7093,50.56,98,100,14.97,CA,2023-06-06 16:17:32
28,grytviken,-54.2811,-36.5092,37.09,94,85,3.91,GS,2023-06-06 16:16:53
29,acapulco de juarez,16.8634,-99.8901,89.42,55,20,11.5,MX,2023-06-06 16:16:07
30,ilulissat,69.2167,-51.1,32.02,86,75,5.75,GL,2023-06-06 16:17:09
31,nova sintra,14.8667,-24.7167,71.01,77,14,1.5,CV,2023-06-06 16:17:27
32,saint-joseph,-21.3667,55.6167,70.47,82,28,9.06,RE,2023-06-06 16:25:46
33,borogontsy,62.6683,131.1683,54.63,71,92,7.65,RU,2023-06-06 16:25:46
34,avarua,-21.2078,-159.775,75.25,60,100,6.91,CK,2023-06-06 16:17:20
35,udachny,66.4167,112.4,37.45,69,7,7.58,RU,2023-06-06 16:18:08
36,kayangel,8.0823,134.7173,83.64,79,100,17.83,PW,2023-06-06 16:25:47
37,cockburn town,21.4612,-71.1419,84.04,78,80,12.62,TC,2023-06-06 16:18:59
38,puerto natales,-51.7236,-72.4875,39.67,77,39,9.26,CL,2023-06-06 16:14:12
39,tiksi,71.6872,128.8694,36.52,91,52,4.47,RU,2023-06-06 16:16:55
40,puerto ayora,-0.7393,-90.3518,84.16,95,74,8.01,EC,2023-06-06 16:16:55
41,fale old settlement,-9.3852,-171.2468,82.45,78,22,12.84,TK,2023-06-06 16:17:57
42,ajuchitlan del progreso,18.1519,-100.4835,103.14,28,0,2.06,MX,2023-06-06 16:25:48
43,mili,6.0815,171.735,83.44,81,86,18.63,MH,2023-06-06 16:16:49
44,tam ky,15.5667,108.4833,77.76,91,99,4.41,VN,2023-06-06 16:25:48
45,utrik,11.2278,169.8474,81.52,84,88,20.94,MH,2023-06-06 16:18:02
46,margate,51.3813,1.3862,53.31,79,13,11.01,GB,2023-06-06 16:25:49
47,adamstown,-25.066,-130.1015,70.11,56,66,16.55,PN,2023-06-06 16:25:49
48,blackmans bay,-43.0167,147.3167,51.75,94,9,6.62,AU,2023-06-06 16:16:54
49,bethel,41.3712,-73.414,71.96,57,0,5.75,US,2023-06-06 16:21:45
50,senanga,-16.1167,23.2667,62.98,32,0,6.38,ZM,2023-06-06 16:25:50
51,port alfred,-33.5906,26.891,63.34,36,0,7.61,ZA,2023-06-06 16:18:19
52,northam,51.0333,-4.2167,55.26,80,1,8.52,GB,2023-06-06 16:25:51
53,burela de cabo,43.65,-7.4,69.17,85,100,7.45,ES,2023-06-06 16:19:22
54,margaret river,-33.95,115.0667,53.51,68,93,18.3,AU,2023-06-06 16:17:02
55,acajutla,13.5928,-89.8275,86.54,66,99,4.45,SV,2023-06-06 16:25:51
56,portland,45.5234,-122.6762,91.11,32,20,9.22,US,2023-06-06 16:21:19
57,antsiranana,-12.2787,49.2917,76.33,83,51,16.98,MG,2023-06-06 16:16:06
58,mitsamiouli,-11.3847,43.2844,79.92,73,2,8.1,KM,2023-06-06 16:25:52
59,el calafate,-50.3408,-72.2768,37.69,75,2,10.94,AR,2023-06-06 16:18:59
60,port elizabeth,-33.918,25.5701,44.89,93,0,4.61,ZA,2023-06-06 16:17:07
61,nueva concepcion,14.2,-91.3,88.27,62,100,8.95,GT,2023-06-06 16:25:53
62,dzhambeyty,50.2536,52.595,54.36,67,0,13.29,KZ,2023-06-06 16:25:53
63,hinton,53.4001,-117.5857,74.05,15,3,1.23,CA,2023-06-06 16:25:53
64,outjo,-20.1167,16.15,60.1,22,0,6.35,NA,2023-06-06 16:25:54
65,bredasdorp,-34.5322,20.0403,49.68,72,74,1.99,ZA,2023-06-06 16:17:10
66,ubari,26.5921,12.7805,86.56,20,98,17.29,LY,2023-06-06 16:25:54
67,banda aceh,5.5577,95.3222,80.51,76,100,14.94,ID,2023-06-06 16:25:03
68,port lincoln,-34.7333,135.8667,60.84,83,14,8.39,AU,2023-06-06 16:16:49
69,ust-tsilma,65.441,52.1498,39.56,83,70,6.17,RU,2023-06-06 16:25:55
70,jarocin,51.9727,17.5026,57.16,74,89,4.74,PL,2023-06-06 16:25:55
71,atafu village,-8.5421,-172.5159,82.58,76,59,11.01,TK,2023-06-06 16:17:03
72,ola,59.5833,151.2833,55.15,70,93,0.67,RU,2023-06-06 16:19:13
73,bilibino,68.0546,166.4372,51.4,53,97,2.64,RU,2023-06-06 16:17:29
74,ribeira grande,38.5167,-28.7,66.6,68,40,15.01,PT,2023-06-06 16:17:55
75,kruisfontein,-34.0033,24.7314,51.76,55,0,4.27,ZA,2023-06-06 16:15:57
76,iqaluit,63.7506,-68.5145,40.73,75,100,8.05,CA,2023-06-06 16:16:51
77,invercargill,-46.4,168.35,36.09,89,54,3.76,NZ,2023-06-06 16:14:14
78,west island,-12.1568,96.8225,76.98,88,40,17.27,CC,2023-06-06 16:17:18
79,moroni,-11.7022,43.2551,77.85,78,6,5.12,KM,2023-06-06 16:25:59
80,new norfolk,-42.7826,147.0587,52.92,89,40,1.43,AU,2023-06-06 16:18:56
81,la passe,45.5549,-0.8967,73.04,64,22,8.43,FR,2023-06-06 16:17:16
82,stanley,54.868,-1.6985,50.7,84,75,2.3,GB,2023-06-06 16:16:57
83,kittila,67.6647,24.8936,42.94,87,0,2.3,FI,2023-06-06 16:26:00
84,novodvinsk,64.4165,40.8122,36.57,89,100,4.5,RU,2023-06-06 16:15:00
85,grande prairie,55.1667,-118.8027,71.78,28,20,10.36,CA,2023-06-06 16:23:02
86,saint-pierre,-21.3393,55.4781,71.56,64,0,4.61,RE,2023-06-06 16:23:19
87,gebeit,21.0667,36.3167,89.29,24,88,2.62,SD,2023-06-06 16:25:17
88,lazaro cardenas,17.9583,-102.2,87.96,56,0,12.06,MX,2023-06-06 16:26:01
89,hamilton,39.1834,-84.5333,85.98,38,40,16.11,US,2023-06-06 16:16:35
90,boguchany,58.3814,97.4531,59.61,93,84,3.85,RU,2023-06-06 16:26:01
91,aasiaat,68.7098,-52.8699,31.3,82,97,7.23,GL,2023-06-06 16:17:48
92,sitka,57.0531,-135.33,53.49,76,75,10.36,US,2023-06-06 16:18:15
93,nadym,65.5333,72.5167,58.14,55,73,11.86,RU,2023-06-06 16:17:22
94,tucurui,-3.7661,-49.6725,81.12,75,91,0.81,BR,2023-06-06 16:26:03
95,rio verde de mato grosso,-18.9181,-54.8442,71.37,55,0,2.19,BR,2023-06-06 16:26:03
96,crane,31.3974,-102.3501,83.98,30,91,9.19,US,2023-06-06 16:17:10
97,isafjordur,66.0755,-23.124,42.35,74,59,5.73,IS,2023-06-06 16:26:04
98,nogliki,51.8333,143.1667,45.45,72,99,4.12,RU,2023-06-06 16:26:04
99,petauke,-14.2426,31.3253,69.53,42,29,9.53,ZM,2023-06-06 16:26:04
100,bemidji,47.4736,-94.8803,82.89,62,0,11.5,US,2023-06-06 16:26:04
101,igarka,67.4667,86.5833,50.09,60,7,5.35,RU,2023-06-06 16:19:35
102,kabansk,52.0486,106.6528,43.3,66,22,4.83,RU,2023-06-06 16:26:05
103,buka,40.8108,69.1986,76.19,18,23,5.55,UZ,2023-06-06 16:26:05
104,kapa'a,22.0752,-159.319,82.38,77,20,10.36,US,2023-06-06 16:17:55
105,coronel dorrego,-38.7187,-61.2873,56.55,74,100,11.48,AR,2023-06-06 16:26:06
106,ceerigaabo,10.6162,47.368,69.35,53,100,6.69,SO,2023-06-06 16:26:06
107,leninskoye,41.7589,69.3864,74.08,18,2,5.1,KZ,2023-06-06 16:26:06
108,saint-philippe,-21.3585,55.7679,71.19,84,35,10.42,RE,2023-06-06 16:18:18
109,klyuchi,52.2667,79.1667,69.93,55,38,5.26,RU,2023-06-06 16:17:22
110,coban,15.4833,-90.3667,83.98,58,75,6.91,GT,2023-06-06 16:26:07
111,woolgoolga,-30.1106,153.2007,58.05,73,84,3.87,AU,2023-06-06 16:26:09
112,albany,42.6001,-73.9662,66.45,61,82,4.03,US,2023-06-06 16:26:09
113,rio grande,-32.035,-52.0986,62.71,81,7,9.66,BR,2023-06-06 16:18:16
114,wailua homesteads,22.0669,-159.378,81.03,77,20,10.36,US,2023-06-06 16:17:43
115,merizo village,13.2658,144.6691,82.98,84,100,13.0,GU,2023-06-06 16:19:33
116,ulladulla,-35.35,150.4667,57.42,76,82,6.51,AU,2023-06-06 16:26:10
117,arcachon,44.5875,-1.0519,71.92,83,0,3.44,FR,2023-06-06 16:26:11
118,rosetta,31.4044,30.4164,69.82,80,56,8.16,EG,2023-06-06 16:26:11
119,port mathurin,-19.6833,63.4167,76.64,66,7,19.82,MU,2023-06-06 16:17:31
120,ceccano,41.5677,13.3333,66.92,94,0,0.0,IT,2023-06-06 16:24:32
121,nelson bay,-32.7167,152.15,57.99,98,2,3.0,AU,2023-06-06 16:16:54
122,manokwari,-0.8667,134.0833,79.5,76,99,4.16,ID,2023-06-06 16:16:15
123,kuching,1.55,110.3333,79.12,97,20,2.3,MY,2023-06-06 16:26:12
124,grand gaube,-20.0064,57.6608,75.6,73,16,3.0,MU,2023-06-06 16:26:12
125,mil'kovo,55.6078,37.7956,58.51,76,49,6.8,RU,2023-06-06 16:26:13
126,hawaiian paradise park,19.5933,-154.9731,83.03,75,40,6.91,US,2023-06-06 16:17:08
127,gadzhiyevo,69.2551,33.3362,38.08,74,99,12.46,RU,2023-06-06 16:18:13
128,papatowai,-46.5619,169.4708,40.62,84,35,4.21,NZ,2023-06-06 16:17:37
129,constantia,44.1833,28.65,56.08,67,93,8.37,RO,2023-06-06 16:12:49
130,hadibu,12.65,54.0333,84.83,78,59,7.18,YE,2023-06-06 16:18:42
131,saipan,15.1355,145.701,83.1,100,20,14.97,MP,2023-06-06 16:19:36
132,palmer,42.1584,-72.3287,68.22,57,100,17.27,US,2023-06-06 16:26:14
133,anadyr,64.75,177.4833,50.5,66,0,20.13,RU,2023-06-06 16:17:23
134,great falls,47.5002,-111.3008,66.67,57,0,6.91,US,2023-06-06 16:26:15
135,itabera,-23.8619,-49.1372,61.29,69,0,6.06,BR,2023-06-06 16:26:15
136,kerikeri,-35.2268,173.9474,54.91,92,100,1.99,NZ,2023-06-06 16:26:15
137,jamestown,42.097,-79.2353,72.52,37,0,12.66,US,2023-06-06 16:17:35
138,katsuren-haebaru,26.3369,127.8719,79.57,100,75,11.5,JP,2023-06-06 16:26:16
139,talcher,20.95,85.2167,85.42,54,43,2.06,IN,2023-06-06 16:26:16
140,harstad,68.799,16.5293,40.15,100,100,1.01,NO,2023-06-06 16:26:17
141,naze,28.3667,129.4833,72.52,95,98,7.27,JP,2023-06-06 16:26:17
142,susangerd,31.5608,48.1831,95.49,17,100,10.22,IR,2023-06-06 16:26:17
143,ambon,-3.6954,128.1814,82.54,78,40,3.44,ID,2023-06-06 16:18:47
144,plettenberg bay,-34.0527,23.3716,57.25,53,0,4.72,ZA,2023-06-06 16:26:18
145,andovoranto,-18.95,49.1,69.85,93,28,6.73,MG,2023-06-06 16:26:18
146,sullivan,36.5168,-82.5332,82.63,39,20,6.91,US,2023-06-06 16:26:18
147,suva,-18.1416,178.4415,72.88,94,75,0.0,FJ,2023-06-06 16:26:19
148,lebu,-37.6167,-73.65,54.59,86,100,7.7,CL,2023-06-06 16:18:06
149,fedorovskiy,45.0972,40.9517,61.63,77,94,6.31,RU,2023-06-06 16:26:19
150,arroyo,41.6096,-4.7969,74.14,61,0,5.75,ES,2023-06-06 16:26:19
151,vorgashor,67.5833,63.95,42.93,91,93,11.12,RU,2023-06-06 16:26:20
152,akrehamn,59.2667,5.1833,51.01,87,20,20.71,NO,2023-06-06 16:26:20
153,hithadhoo,-0.6,73.0833,82.94,76,17,7.7,MV,2023-06-06 16:16:48
154,peniche,39.3558,-9.3811,70.29,87,100,2.86,PT,2023-06-06 16:19:18
155,georgetown,5.4112,100.3354,82.33,84,20,3.44,MY,2023-06-06 16:14:04
156,dudinka,69.4058,86.1778,43.63,63,7,7.99,RU,2023-06-06 16:19:00
157,kikwit,-5.041,18.8162,76.32,72,18,0.2,CD,2023-06-06 16:26:21
158,streator,41.1209,-88.8354,81.57,46,100,7.92,US,2023-06-06 16:26:22
159,happy valley-goose bay,53.3168,-60.3315,44.91,81,100,16.11,CA,2023-06-06 16:19:33
160,kolonia,50.9333,6.95,70.97,47,0,2.3,DE,2023-06-06 16:23:36
161,akjoujt,19.6969,-14.4164,92.01,18,0,10.13,MR,2023-06-06 16:26:23
162,manta,-0.95,-80.7333,82.18,89,40,13.0,EC,2023-06-06 16:26:23
163,hami,42.8,93.45,78.06,18,0,7.4,CN,2023-06-06 16:26:23
164,whitehorse,60.7161,-135.0538,54.01,82,75,8.05,CA,2023-06-06 16:15:15
165,qarazhal,48.0078,70.7903,67.59,39,30,2.42,KZ,2023-06-06 16:26:24
166,uturoa,-16.7333,-151.4333,79.56,72,90,16.06,PF,2023-06-06 16:17:07
167,enewetak,11.3474,162.3373,82.35,80,94,14.27,MH,2023-06-06 16:17:32
168,petropavlovsk-kamchatsky,53.0452,158.6483,54.19,44,20,15.66,RU,2023-06-06 16:18:22
169,kingston,17.997,-76.7936,87.24,76,75,17.27,JM,2023-06-06 16:17:12
170,hammerfest,70.6634,23.6821,37.85,87,75,5.75,NO,2023-06-06 16:15:48
171,puerto baquerizo moreno,-0.9,-89.6,77.86,80,66,15.55,EC,2023-06-06 16:17:29
172,dzhangala,49.2167,50.3333,59.29,65,0,6.76,KZ,2023-06-06 16:26:26
173,amursk,50.2261,136.8994,56.21,88,97,4.16,RU,2023-06-06 16:26:26
174,greenwood,34.1668,-82.1165,89.62,45,0,8.05,US,2023-06-06 16:26:26
175,mora,11.0461,14.1401,80.28,66,100,5.21,CM,2023-06-06 16:26:26
176,caucete,-31.6518,-68.2811,69.78,48,73,10.6,AR,2023-06-06 16:26:27
177,batticaloa,7.7102,81.6924,82.56,77,100,5.53,LK,2023-06-06 16:26:27
178,kijang,35.2442,129.2139,62.33,82,81,4.45,KR,2023-06-06 16:26:27
179,kokopo,-4.352,152.2633,77.68,80,100,4.5,PG,2023-06-06 16:26:28
180,naracoorte,-36.9579,140.7383,58.24,90,100,16.15,AU,2023-06-06 16:26:28
181,bolotnoye,55.6717,84.3981,67.68,69,1,5.91,RU,2023-06-06 16:26:28
182,taksimo,56.3444,114.8794,42.73,81,96,4.9,RU,2023-06-06 16:18:40
183,olonkinbyen,70.9221,-8.7187,34.16,74,100,4.94,SJ,2023-06-06 16:17:04
184,lerwick,60.1545,-1.1494,51.8,80,100,6.06,GB,2023-06-06 16:19:11
185,havelberg,52.8309,12.0755,69.84,70,94,1.01,DE,2023-06-06 16:26:29
186,luanda,-8.8368,13.2343,69.73,92,90,8.23,AO,2023-06-06 16:24:08
187,beledweyne,4.7358,45.2036,79.38,70,37,18.07,SO,2023-06-06 16:26:30
188,nemuro,43.3236,145.575,52.02,95,99,8.57,JP,2023-06-06 16:17:36
189,tofol,5.3248,163.0078,83.57,75,19,8.66,FM,2023-06-06 16:18:23
190,san antonio de pale,-1.4014,5.6325,77.59,84,100,10.89,GQ,2023-06-06 16:26:30
191,acton,51.509,-0.2762,56.14,73,75,10.36,GB,2023-06-06 16:26:31
192,akobo,7.4344,3.9497,74.75,94,75,0.0,NG,2023-06-06 16:26:31
193,dwarka,22.2394,68.9678,83.1,82,8,16.58,IN,2023-06-06 16:26:31
194,talnakh,69.4865,88.3972,43.21,80,66,7.16,RU,2023-06-06 16:17:57
195,tol'yatti,53.5303,49.3461,53.71,77,62,7.76,RU,2023-06-06 16:26:32
196,xiaoweizhai,26.1903,107.5125,66.2,97,13,1.61,CN,2023-06-06 16:26:32
197,ceres,37.5949,-120.9577,82.72,49,20,0.0,US,2023-06-06 16:25:27
198,chonchi,-42.6128,-73.8092,50.13,84,31,2.64,CL,2023-06-06 16:17:25
199,nar'yan-mar,67.6713,53.087,39.34,83,99,13.76,RU,2023-06-06 16:26:33
200,puerto asis,0.5133,-76.5007,70.32,99,100,2.37,CO,2023-06-06 16:26:33
201,lobujya,27.95,86.8167,22.44,92,91,2.48,NP,2023-06-06 16:26:34
202,titao,13.7667,-2.0667,99.77,14,88,0.81,BF,2023-06-06 16:26:34
203,awjilah,29.1081,21.2869,89.65,20,100,23.96,LY,2023-06-06 16:26:34
204,luderitz,-26.6481,15.1594,53.71,91,0,13.6,NA,2023-06-06 16:19:37
205,shahpur,16.7,76.8333,87.39,48,96,20.76,IN,2023-06-06 16:26:35
206,penaranda de bracamonte,40.9011,-5.2003,69.35,54,100,10.42,ES,2023-06-06 16:25:08
207,tynda,55.1667,124.7167,47.19,96,97,2.17,RU,2023-06-06 16:26:35
208,thinadhoo,0.5333,72.9333,82.58,74,90,4.72,MV,2023-06-06 16:26:35
209,fort leonard wood,37.7057,-92.1572,87.26,31,0,0.0,US,2023-06-06 16:26:36
210,sisimiut,66.9395,-53.6735,31.5,79,93,8.72,GL,2023-06-06 16:17:51
211,altay,47.8667,88.1167,68.9,37,11,7.34,CN,2023-06-06 16:26:36
212,ghadamis,30.1337,9.5007,78.04,39,50,15.03,LY,2023-06-06 16:26:36
213,maxixe,-23.8597,35.3472,71.26,89,0,5.39,MZ,2023-06-06 16:26:37
214,greymouth,-42.4667,171.2,41.56,82,0,6.02,NZ,2023-06-06 16:17:47
215,selfoss,63.9331,-20.9971,45.05,67,18,10.09,IS,2023-06-06 16:17:44
216,touros,-5.1989,-35.4608,79.09,79,8,9.89,BR,2023-06-06 16:15:06
217,college,64.8569,-147.8028,77.09,27,20,6.91,US,2023-06-06 16:16:53
218,tamanrasset,22.785,5.5228,84.11,9,0,10.36,DZ,2023-06-06 16:26:38
219,puerto ayacucho,5.6639,-67.6236,75.72,91,100,4.05,VE,2023-06-06 16:26:38
220,la paz,-16.5,-68.15,58.98,19,20,8.05,BO,2023-06-06 16:15:41
221,la sarre,48.8002,-79.1996,65.53,31,0,14.52,CA,2023-06-06 16:26:38
222,baxter,46.3433,-94.2867,84.49,53,0,9.22,US,2023-06-06 16:26:39
223,cestos city,5.46,-9.5828,78.31,89,100,13.27,LR,2023-06-06 16:26:39
224,salalah,17.0151,54.0924,86.09,74,20,6.91,OM,2023-06-06 16:26:39
225,loei,17.4167,101.5,66.52,97,100,2.66,TH,2023-06-06 16:26:39
226,karor,31.2274,70.9492,86.67,44,0,14.43,PK,2023-06-06 16:26:40
227,cape canaveral,28.4058,-80.6048,86.07,66,0,10.36,US,2023-06-06 16:21:48
228,itoman,26.1247,127.6694,79.57,96,40,11.5,JP,2023-06-06 16:17:31
229,kyshtovka,56.555,76.6271,64.54,79,100,3.94,RU,2023-06-06 16:19:20
230,natal,-5.795,-35.2094,81.25,83,75,8.05,BR,2023-06-06 16:19:29
231,quellon,-43.1167,-73.6167,48.45,81,40,3.44,CL,2023-06-06 16:17:14
232,taounate,34.5,-4.8333,73.54,78,100,9.98,MA,2023-06-06 16:26:41
233,holualoa,19.6228,-155.9522,79.56,71,20,11.5,US,2023-06-06 16:18:29
234,cidreira,-30.1811,-50.2056,64.33,82,0,12.84,BR,2023-06-06 16:18:16
235,chapaev,50.2,51.1667,54.5,75,1,7.2,KZ,2023-06-06 16:26:42
236,keetmanshoop,-26.5833,18.1333,58.12,14,0,6.91,NA,2023-06-06 16:26:42
237,berdigestyakh,62.0989,126.6992,50.04,66,15,6.55,RU,2023-06-06 16:26:43
238,dryden,49.7833,-92.7503,66.49,72,100,13.8,CA,2023-06-06 16:26:43
239,cidade velha,14.9167,-23.6167,75.67,83,0,4.61,CV,2023-06-06 16:26:44
240,kuzhener,56.8111,48.9128,47.73,84,68,6.49,RU,2023-06-06 16:26:44
241,laughlin,35.1678,-114.573,97.07,10,0,17.27,US,2023-06-06 16:26:44
242,roma,43.2128,-75.4557,67.37,60,100,10.36,US,2023-06-06 16:26:45
243,port-vila,-17.7338,168.3219,74.8,78,20,1.14,VU,2023-06-06 16:18:27
244,nikolayevsk-on-amure,53.1406,140.73,57.36,77,17,2.3,RU,2023-06-06 16:26:45
245,tura,25.5198,90.2201,79.34,57,2,4.83,IN,2023-06-06 16:17:46
246,macapa,0.0389,-51.0664,84.18,79,20,9.22,BR,2023-06-06 16:21:57
247,keflavik,64.0049,-22.5624,42.71,81,75,11.5,IS,2023-06-06 16:16:49
248,chernyshevskiy,63.0128,112.4714,37.74,65,3,1.92,RU,2023-06-06 16:26:46
249,as samawah,31.332,45.2944,92.21,29,96,7.7,IQ,2023-06-06 16:26:46
250,ipora,-16.4419,-51.1178,72.57,35,0,1.83,BR,2023-06-06 16:21:56
251,illizi,26.4833,8.4667,85.8,21,95,14.29,DZ,2023-06-06 16:17:13
252,soma,39.1855,27.6094,68.79,87,2,6.29,TR,2023-06-06 16:26:47
253,polyarnyy,69.1989,33.4478,38.37,74,100,12.26,RU,2023-06-06 16:26:48
254,howard springs,-12.497,131.047,71.82,75,5,4.65,AU,2023-06-06 16:26:48
255,sargur,11.9833,76.4167,71.24,94,85,6.89,IN,2023-06-06 16:26:48
256,kudahuvadhoo,2.6708,72.8944,82.92,78,81,13.42,MV,2023-06-06 16:18:28
257,camana,-16.6228,-72.7111,66.9,74,6,6.44,PE,2023-06-06 16:26:49
258,gargalianoi,37.0667,21.6333,68.36,88,86,3.0,GR,2023-06-06 16:26:49
259,tanabe,33.7333,135.3667,65.7,93,61,10.2,JP,2023-06-06 16:24:14
260,hermanus,-34.4187,19.2345,55.11,64,90,0.2,ZA,2023-06-06 16:17:39
261,taoudenni,22.6783,-3.9836,96.12,14,0,7.25,ML,2023-06-06 16:19:27
262,paradip garh,20.3167,86.6167,85.69,75,76,9.15,IN,2023-06-06 16:26:50
263,amstetten,48.1229,14.8721,61.81,91,100,1.97,AT,2023-06-06 16:26:50
264,ban huai thalaeng,14.9833,102.65,77.05,85,100,9.06,TH,2023-06-06 16:26:50
265,dean funes,-30.4204,-64.3498,66.22,70,79,5.3,AR,2023-06-06 16:23:04
266,challapata,-18.9,-66.7667,52.57,11,0,4.03,BO,2023-06-06 16:26:51
267,nenjiang,49.1833,125.2167,57.88,59,95,13.44,CN,2023-06-06 16:26:51
268,omdurman,15.6445,32.4777,92.08,33,59,9.22,SD,2023-06-06 16:17:38
269,ta`u,-14.2336,-169.5144,81.01,78,97,21.9,AS,2023-06-06 16:26:51
270,carnarvon,-24.8667,113.6333,66.43,56,83,9.22,AU,2023-06-06 16:16:56
271,tucuma,-0.1833,-50.05,79.14,87,15,6.44,BR,2023-06-06 16:26:52
272,khodzha-maston,38.7446,68.627,63.82,33,80,11.01,TJ,2023-06-06 16:26:52
273,nzerekore,7.7562,-8.8179,74.01,92,100,6.96,GN,2023-06-06 16:26:53
274,bridgewater,44.3835,-64.5155,53.62,91,100,10.36,CA,2023-06-06 16:26:53
275,batabano,22.7164,-82.2881,86.61,60,100,9.98,CU,2023-06-06 16:26:53
276,gwanda,-20.9333,29.0,57.45,93,0,5.77,ZW,2023-06-06 16:26:53
277,san jose del cabo,23.0589,-109.6977,92.48,43,0,16.11,MX,2023-06-06 16:18:34
278,novokruchininskiy,51.7833,113.7667,46.13,71,19,7.4,RU,2023-06-06 16:26:54
279,high rock,26.6208,-78.2833,82.42,69,100,7.81,BS,2023-06-06 16:26:54
280,imperatriz,-5.5264,-47.4917,80.19,67,11,2.46,BR,2023-06-06 16:25:08
281,mukalla,14.5425,49.1242,85.6,78,78,1.3,YE,2023-06-06 16:26:55
282,es castell,39.8795,4.2854,68.68,83,0,4.61,ES,2023-06-06 16:26:55
283,badou,7.5833,0.6,74.82,93,92,3.33,TG,2023-06-06 16:26:55
284,kavaratti,10.5669,72.642,85.57,76,92,17.29,IN,2023-06-06 16:19:08
285,butzbach,50.4339,8.6712,63.48,60,56,2.93,DE,2023-06-06 16:26:56
286,kimbe,-5.5502,150.1429,76.69,91,100,2.84,PG,2023-06-06 16:26:56
287,palapye,-22.546,27.1251,59.85,85,0,7.38,BW,2023-06-06 16:26:56
288,liberia,6.5,-9.5,74.14,98,100,5.35,LR,2023-06-06 16:26:57
289,colonia,50.9333,6.95,70.97,47,0,2.3,DE,2023-06-06 16:26:17
290,thunder bay,48.4001,-89.3168,64.31,34,75,8.05,CA,2023-06-06 16:25:32
291,waddan,29.1614,16.139,84.76,31,99,16.78,LY,2023-06-06 16:26:57
292,rio guayabal de yateras,20.3667,-75.0167,80.51,82,100,1.72,CU,2023-06-06 16:26:58
293,kharp,66.8014,65.8081,47.71,76,65,7.58,RU,2023-06-06 16:26:58
294,martapura,-3.4167,114.85,77.09,100,20,1.14,ID,2023-06-06 16:26:58
295,beyneu,45.3167,55.2,75.88,58,92,12.68,KZ,2023-06-06 16:26:58
296,flying fish cove,-10.4217,105.6791,76.68,83,100,12.66,CX,2023-06-06 16:18:26
297,lihue,21.9789,-159.3672,81.64,72,20,10.36,US,2023-06-06 16:26:59
298,carnota,42.8233,-9.0891,72.0,71,100,7.96,ES,2023-06-06 16:27:00
299,shihezi,44.3,86.0333,75.67,19,0,7.07,CN,2023-06-06 16:27:00
300,bam,29.106,58.357,89.47,22,99,5.12,IR,2023-06-06 16:27:00
301,cherykaw,53.5692,31.3793,51.96,75,6,2.71,BY,2023-06-06 16:27:00
302,kirakira,-10.4544,161.9205,80.44,83,100,5.19,SB,2023-06-06 16:27:01
303,quincy,42.2529,-71.0023,73.35,41,100,16.11,US,2023-06-06 16:22:59
304,lexington,37.9887,-84.4777,84.2,30,0,11.5,US,2023-06-06 16:25:37
305,el charco,2.4769,-78.1105,84.18,72,59,6.69,CO,2023-06-06 16:27:01
306,lompoc,34.6391,-120.4579,64.54,80,100,9.22,US,2023-06-06 16:27:02
307,ilha de mocambique,-15.0342,40.7358,78.08,74,0,6.82,MZ,2023-06-06 16:27:02
308,luwuk,-0.9516,122.7875,74.41,85,65,5.5,ID,2023-06-06 16:27:02
309,mangai,-4.05,19.5333,73.85,82,13,1.12,CD,2023-06-06 16:27:02
310,paramonga,-10.6667,-77.8333,74.64,71,7,8.55,PE,2023-06-06 16:27:03
311,qaqortoq,60.7167,-46.0333,36.97,91,100,3.51,GL,2023-06-06 16:17:28
312,el matama,16.7095,33.3565,93.09,33,61,9.91,SD,2023-06-06 16:27:04
313,callao,-12.0667,-77.15,75.49,69,75,11.5,PE,2023-06-06 16:17:24
314,yanbu,24.0891,38.0637,91.44,43,0,4.61,SA,2023-06-06 16:27:04
315,tambura,5.6,27.4667,68.38,98,62,3.65,SS,2023-06-06 16:27:04
316,poronaysk,49.2167,143.1167,52.29,81,11,3.04,RU,2023-06-06 16:27:05
317,hilo,19.7297,-155.09,84.27,75,40,8.99,US,2023-06-06 16:18:10
318,san juan bautista,-14.0108,-75.7358,78.21,46,0,11.56,PE,2023-06-06 16:27:05
319,gansing,6.7403,124.6589,74.82,94,100,0.25,PH,2023-06-06 16:27:06
320,padang,-0.9492,100.3543,77.05,91,99,3.04,ID,2023-06-06 16:27:06
321,dzagam,40.9033,45.8856,64.13,89,100,1.68,AZ,2023-06-06 16:27:07
322,san luis de la loma,17.2706,-100.8939,89.1,53,0,8.14,MX,2023-06-06 16:18:06
323,east london,-33.0153,27.9116,62.02,33,0,5.73,ZA,2023-06-06 16:27:07
324,nouadhibou,20.931,-17.0347,73.38,83,0,8.05,MR,2023-06-06 16:27:07
325,singapore,1.2897,103.8501,81.14,90,75,4.61,SG,2023-06-06 16:27:08
326,kargopol',61.5071,38.9456,40.12,90,6,4.32,RU,2023-06-06 16:27:08
327,oak hill,37.9723,-81.1487,74.75,49,100,1.01,US,2023-06-06 16:27:08
328,nhamunda,-2.1861,-56.7131,84.2,68,74,2.33,BR,2023-06-06 16:27:08
329,ancud,-41.8697,-73.8203,49.42,81,52,4.07,CL,2023-06-06 16:27:09
330,saldanha,-33.0117,17.9442,54.59,71,0,8.46,ZA,2023-06-06 16:18:23
331,matoury,4.8483,-52.3317,82.36,74,75,11.5,GF,2023-06-06 16:27:09
332,guercif,34.2257,-3.3536,72.55,70,100,4.76,MA,2023-06-06 16:27:09
333,jinzhou,41.1078,121.1417,64.56,62,15,11.21,CN,2023-06-06 16:27:10
334,vila franca do campo,37.7167,-25.4333,66.61,89,100,22.82,PT,2023-06-06 16:18:51
335,antofagasta,-23.65,-70.4,63.68,71,39,3.2,CL,2023-06-06 16:27:10
336,brigantine,39.4101,-74.3646,82.6,24,20,16.11,US,2023-06-06 16:27:10
337,lautoka,-17.6167,177.4667,76.86,78,100,3.44,FJ,2023-06-06 16:27:11
338,iskateley,67.6803,53.1512,39.33,83,99,13.71,RU,2023-06-06 16:27:11
339,bereeda,11.8704,51.0579,86.86,68,93,4.05,SO,2023-06-06 16:27:11
340,puerto armuelles,8.2833,-82.8667,87.78,68,99,3.0,PA,2023-06-06 16:27:12
341,sonoita,31.85,-112.8333,85.98,15,0,22.48,MX,2023-06-06 16:27:12
342,the pas,53.8251,-101.2541,71.62,83,100,2.3,CA,2023-06-06 16:27:12
343,cumaru,-8.0061,-35.6972,70.83,93,83,5.53,BR,2023-06-06 16:27:13
344,afaahiti,-17.75,-149.2833,82.27,76,97,15.28,PF,2023-06-06 16:23:18
345,zhalantun,48.0,122.7167,53.2,73,2,12.71,CN,2023-06-06 16:27:13
346,aldan,58.6031,125.3894,48.25,83,99,5.77,RU,2023-06-06 16:27:13
347,adrar,20.5022,-10.0711,92.5,13,35,6.8,MR,2023-06-06 16:27:14
348,general toshevo,43.7,28.0333,56.43,91,66,5.1,BG,2023-06-06 16:27:14
349,vilyuchinsk,52.9306,158.4028,55.67,81,89,6.31,RU,2023-06-06 16:27:14
350,nova vicosa,-17.8919,-39.3719,73.11,70,50,10.13,BR,2023-06-06 16:27:15
351,dadiya,9.6167,11.4333,82.18,60,100,3.33,NG,2023-06-06 16:27:15
352,taltal,-25.4,-70.4833,61.54,78,24,1.63,CL,2023-06-06 16:17:45
353,ulanhot,46.0833,122.0833,63.45,50,59,13.51,CN,2023-06-06 16:27:16
354,farsan,32.2569,50.561,59.04,34,100,3.78,IR,2023-06-06 16:27:16
355,bereket,39.2446,55.5154,78.85,56,100,13.18,TM,2023-06-06 16:17:18
356,ilomantsi,62.6716,30.9328,47.79,59,100,1.99,FI,2023-06-06 16:27:17
357,howrah,22.5892,88.3103,89.6,74,20,3.44,IN,2023-06-06 16:17:38
358,borisoglebskiy,57.2586,39.1508,48.43,78,14,7.38,RU,2023-06-06 16:27:17
359,susuman,62.7833,148.1667,54.25,58,41,3.58,RU,2023-06-06 16:18:46
360,badger,64.8,-147.5333,77.0,27,40,6.91,US,2023-06-06 16:27:18
361,chinde,26.8418,88.0763,67.68,52,0,6.06,NP,2023-06-06 16:27:18
362,lae,-6.7221,146.9847,74.07,80,100,6.85,PG,2023-06-06 16:27:18
363,godmanchester,52.3194,-0.1751,52.57,92,26,8.23,GB,2023-06-06 16:27:18
364,walvis bay,-22.9575,14.5053,57.09,82,0,3.44,NA,2023-06-06 16:22:19
365,emerald,-23.5333,148.1667,51.35,91,0,7.38,AU,2023-06-06 16:27:19
366,mapleton,40.1302,-111.5785,86.61,20,0,12.66,US,2023-06-06 16:27:19
367,avlonas,37.3653,21.8026,65.55,90,85,2.19,GR,2023-06-06 16:27:19
368,zabol,32.25,67.25,69.58,16,6,6.85,AF,2023-06-06 16:27:20
369,navasota,30.388,-96.0877,88.86,55,28,4.83,US,2023-06-06 16:27:20
370,fereydun kenar,36.6864,52.5225,72.97,83,100,6.93,IR,2023-06-06 16:27:20
371,vicuna,-30.0319,-70.7081,75.78,27,100,2.19,CL,2023-06-06 16:27:21
372,girvan,55.2426,-4.8555,59.0,91,63,0.69,GB,2023-06-06 16:27:21
373,tuskegee,32.424,-85.6916,91.09,33,97,1.99,US,2023-06-06 16:27:22
374,tandil,-37.3217,-59.1332,61.68,95,100,6.64,AR,2023-06-06 16:24:53
375,gorgan,36.8387,54.4348,71.56,88,75,11.5,IR,2023-06-06 16:27:22
376,chichiriviche,10.9333,-68.2772,85.12,70,100,8.08,VE,2023-06-06 16:27:22
377,onguday,50.75,86.15,57.24,85,1,2.91,RU,2023-06-06 16:27:23
378,adler,43.43,39.92,64.56,93,75,4.47,RU,2023-06-06 16:26:01
379,ratnagiri,16.9833,73.3,83.59,77,86,7.0,IN,2023-06-06 16:27:23
380,kodiak,57.79,-152.4072,45.91,93,100,10.36,US,2023-06-06 16:17:37
381,dayton,39.7589,-84.1916,84.22,36,40,14.97,US,2023-06-06 16:20:49
382,hemsby,52.6971,1.6918,52.41,74,99,14.18,GB,2023-06-06 16:27:24
383,tralee,52.2704,-9.7026,56.68,89,24,0.94,IE,2023-06-06 16:27:24
384,gvardeysk,54.6477,21.0651,51.85,73,4,5.53,RU,2023-06-06 16:27:25
385,miles city,46.4083,-105.8406,90.57,27,0,9.22,US,2023-06-06 16:27:13
386,osuna,37.2377,-5.1075,75.92,38,100,16.4,ES,2023-06-06 16:27:25
387,eraan,9.0629,117.7016,79.47,83,100,4.18,PH,2023-06-06 16:27:25
388,kulhudhuffushi,6.6221,73.07,84.18,79,77,16.2,MV,2023-06-06 16:27:26
389,nacala,-14.5428,40.6728,70.81,91,0,5.55,MZ,2023-06-06 16:27:26
390,idri,27.5,13.2667,89.22,19,100,17.16,LY,2023-06-06 16:27:26
391,xinshi,31.047,113.141,66.65,80,85,2.15,CN,2023-06-06 16:27:27
392,piacabucu,-10.4056,-36.4344,75.09,92,92,10.29,BR,2023-06-06 16:17:58
393,chai badan,15.2,101.1333,78.58,80,100,7.16,TH,2023-06-06 16:27:27
394,opuwo,-18.0607,13.84,61.48,31,0,3.44,NA,2023-06-06 16:17:36
395,basoko,1.2391,23.616,74.8,79,11,2.3,CD,2023-06-06 16:27:28
396,cozumel,20.5083,-86.9458,89.67,70,75,11.01,MX,2023-06-06 16:26:09
397,gaspe,48.8334,-64.4819,46.62,100,100,14.97,CA,2023-06-06 16:24:08
398,alofi,-19.0595,-169.9187,78.69,78,75,12.66,NU,2023-06-06 16:27:29
399,sampit,-2.5333,112.95,74.23,99,96,2.06,ID,2023-06-06 16:27:29
400,al ghayzah,16.2079,52.176,82.76,81,6,8.81,YE,2023-06-06 16:27:29
401,kralendijk,12.15,-68.2667,87.78,74,75,16.11,BQ,2023-06-06 16:27:30
402,cabinda,-5.55,12.2,73.31,90,13,6.71,AO,2023-06-06 16:27:30
403,belogradchik,43.6272,22.6836,58.14,92,100,2.98,BG,2023-06-06 16:27:30
404,grand falls-windsor,48.9332,-55.6649,53.51,93,100,5.99,CA,2023-06-06 16:18:03
405,lubang,13.8584,120.124,83.12,75,97,5.21,PH,2023-06-06 16:27:31
406,augusto correa,-1.0217,-46.635,77.85,84,40,3.96,BR,2023-06-06 16:27:31
407,harper,4.375,-7.7169,78.12,88,100,10.33,LR,2023-06-06 16:27:31
408,colares,38.7992,-9.4469,69.98,89,100,10.0,PT,2023-06-06 16:27:32
409,paphos,34.7667,32.4167,71.38,88,20,4.61,CY,2023-06-06 16:27:32
410,hotan,37.0997,79.9269,73.78,25,100,6.49,CN,2023-06-06 16:19:20
411,sao felix do xingu,-6.6447,-51.995,79.72,70,45,2.59,BR,2023-06-06 16:18:43
412,khilok,51.3674,110.4676,38.28,64,0,4.74,RU,2023-06-06 16:27:33
413,kivioli,59.3531,26.9711,51.82,93,100,5.95,EE,2023-06-06 16:27:33
414,tazovsky,67.4667,78.7,50.54,74,88,11.45,RU,2023-06-06 16:18:36
415,pisco,-13.7,-76.2167,71.65,68,2,8.05,PE,2023-06-06 16:18:05
416,zavetnoye,47.1194,43.8903,58.95,60,64,7.74,RU,2023-06-06 16:27:34
417,blairgowrie,56.5916,-3.3405,52.72,85,100,1.99,GB,2023-06-06 16:27:34
418,saint-francois,46.4154,3.9054,65.68,77,0,3.44,FR,2023-06-06 16:27:34
419,rundu,-17.9333,19.7667,64.27,35,4,5.95,NA,2023-06-06 16:27:35
420,el granada,37.5027,-122.4694,71.49,72,100,20.71,US,2023-06-06 16:18:09
421,rio gallegos,-51.6226,-69.2181,42.85,65,20,27.63,AR,2023-06-06 16:27:35
422,arar,30.9753,41.0381,84.22,16,0,9.22,SA,2023-06-06 16:27:35
423,mahalapye,-23.1041,26.8142,60.93,78,0,12.35,BW,2023-06-06 16:27:36
424,prince rupert,54.3161,-130.3201,57.29,68,0,14.97,CA,2023-06-06 16:26:47
425,jumla,29.2747,82.1838,50.83,83,8,4.05,NP,2023-06-06 16:27:36
426,gujar khan,33.2558,73.3026,80.64,39,69,3.36,PK,2023-06-06 16:27:36
427,ipueiras,-7.0333,-40.45,78.57,48,7,10.69,BR,2023-06-06 16:27:26
428,lospalos,-8.5186,127.0025,69.26,94,72,4.41,TL,2023-06-06 16:27:37
429,gornyye klyuchi,45.25,133.5,56.44,96,60,3.09,RU,2023-06-06 16:27:37
430,al bawiti,28.3492,28.8659,83.95,23,100,8.86,EG,2023-06-06 16:27:37
431,chokwe,-24.5333,32.9833,65.35,93,0,1.41,MZ,2023-06-06 16:27:38
432,metlili chaamba,32.2667,3.6333,79.74,29,0,11.5,DZ,2023-06-06 16:27:38
433,mount gambier,-37.8333,140.7667,55.06,88,100,9.91,AU,2023-06-06 16:16:24
434,brookhaven,31.5791,-90.4407,87.46,51,92,2.17,US,2023-06-06 16:26:18
435,newman,37.3138,-121.0208,82.74,54,8,5.99,US,2023-06-06 16:27:39
436,kalevala,65.2,31.1667,42.51,64,99,4.07,RU,2023-06-06 16:27:39
437,pauini,-7.7136,-66.9764,77.41,90,97,0.6,BR,2023-06-06 16:27:39
438,mont belvieu,29.8477,-94.8908,87.93,56,65,5.57,US,2023-06-06 16:27:40
439,mmabatho,-25.85,25.6333,58.28,59,0,12.19,ZA,2023-06-06 16:27:40
440,kostomuksha,64.571,30.5767,42.85,63,100,2.82,RU,2023-06-06 16:27:40
441,bandarbeyla,9.4942,50.8122,81.86,82,100,19.26,SO,2023-06-06 16:27:40
442,tchintabaraden,15.8969,5.7985,94.14,15,98,6.11,NE,2023-06-06 16:19:30
443,le port,-20.9373,55.2919,71.89,90,33,5.77,RE,2023-06-06 16:27:41
444,jalai nur,49.45,117.7,50.97,65,99,17.87,CN,2023-06-06 16:27:41
445,zouerate,22.7187,-12.4521,91.09,18,0,10.67,MR,2023-06-06 16:27:41
446,tokoroa,-38.2333,175.8667,48.94,83,80,7.0,NZ,2023-06-06 16:27:42
447,toccoa,34.5773,-83.3324,87.44,39,0,10.36,US,2023-06-06 16:27:42
448,alaghsas,17.0187,8.0168,94.78,12,18,9.01,NE,2023-06-06 16:27:42
449,griffith,41.5284,-87.4237,76.24,71,0,10.36,US,2023-06-06 16:27:42
450,dubovskoye,47.4092,42.7575,59.27,61,3,5.68,RU,2023-06-06 16:27:43
451,alice springs,-23.7,133.8833,65.75,59,73,4.61,AU,2023-06-06 16:27:43
452,progreso,21.2833,-89.6667,93.31,68,26,14.61,MX,2023-06-06 16:27:43
453,rucar,45.4,25.1667,53.31,80,100,2.8,RO,2023-06-06 16:27:43
454,vila velha,-20.3297,-40.2925,71.94,77,0,5.75,BR,2023-06-06 16:24:27
455,viveiro,43.6623,-7.5934,70.23,83,100,8.43,ES,2023-06-06 16:27:44
456,fort bragg,35.139,-79.006,87.35,45,20,11.5,US,2023-06-06 16:18:27
457,along,28.1667,94.7667,72.14,74,0,2.21,IN,2023-06-06 16:27:44
458,wajir,1.7471,40.0573,79.75,60,11,15.28,KE,2023-06-06 16:27:45
459,cabo san lucas,22.8909,-109.9124,92.5,27,0,3.44,MX,2023-06-06 16:13:33
460,beihai,21.4833,109.1,78.57,92,98,15.48,CN,2023-06-06 16:27:45
461,i-n-salah,27.1935,2.4607,93.87,17,64,15.28,DZ,2023-06-06 16:27:46
462,iskitim,54.6366,83.3045,68.83,70,34,4.36,RU,2023-06-06 16:27:46
463,florence,43.7667,11.25,67.53,88,40,3.44,IT,2023-06-06 16:27:46
464,arraial do cabo,-22.9661,-42.0278,69.66,88,0,6.91,BR,2023-06-06 16:27:46
465,tereze,43.9361,42.4434,53.04,98,98,3.67,RU,2023-06-06 16:27:47
466,loreto,22.2667,-101.9667,83.12,21,66,3.96,MX,2023-06-06 16:23:17
467,barclayville,4.6797,-8.2339,76.42,93,100,6.06,LR,2023-06-06 16:27:47
468,oltinko'l,40.8011,72.1634,75.81,27,18,6.55,UZ,2023-06-06 16:27:47
469,hobyo,5.3505,48.5268,81.52,81,100,23.96,SO,2023-06-06 16:27:48
470,vadso,70.0744,29.7487,41.16,65,100,9.22,NO,2023-06-06 16:27:48
471,nishinoomote,30.7333,131.0,71.04,85,54,17.13,JP,2023-06-06 16:27:48
472,nuuk,64.1835,-51.7216,34.41,100,100,23.02,GL,2023-06-06 16:18:30
473,gillette,44.2911,-105.5022,80.02,38,0,8.05,US,2023-06-06 16:27:49
474,mumford,5.2618,-0.759,81.05,83,100,13.49,GH,2023-06-06 16:27:49
475,kone,-21.0595,164.8658,68.0,62,15,5.08,NC,2023-06-06 16:17:58
476,comilla,23.4578,91.2044,81.82,83,76,5.28,BD,2023-06-06 16:27:49
477,turpan,42.9333,89.1667,88.39,12,0,2.46,CN,2023-06-06 16:27:50
478,shache,38.4167,77.2406,75.7,30,100,7.96,CN,2023-06-06 16:17:59
479,argo,37.6333,22.7333,68.79,60,37,2.59,GR,2023-06-06 16:27:50
480,beroroha,-21.6667,45.1667,67.23,53,0,2.13,MG,2023-06-06 16:27:50
481,sergeyevka,53.88,67.4158,70.0,48,69,6.15,KZ,2023-06-06 16:18:50
482,ardabil,38.2498,48.2933,56.75,94,100,6.91,IR,2023-06-06 16:27:51
483,champerico,14.3,-91.9167,93.74,68,100,7.65,GT,2023-06-06 16:18:25
484,springbok,-29.6643,17.8865,50.29,47,0,3.96,ZA,2023-06-06 16:27:52
485,praia da vitoria,38.7333,-27.0667,62.85,94,75,31.14,PT,2023-06-06 16:23:08
486,paracuru,-3.41,-39.0306,82.11,79,4,10.38,BR,2023-06-06 16:27:52
487,kamaishi,39.2667,141.8833,61.57,94,99,8.63,JP,2023-06-06 16:27:52
488,pangody,65.85,74.4859,57.31,53,69,10.2,RU,2023-06-06 16:18:53
489,paciran,-6.8767,112.3761,76.24,89,87,5.68,ID,2023-06-06 16:27:53
490,tema,5.667,-0.0166,75.61,94,75,4.61,GH,2023-06-06 16:27:54
491,port douglas,-16.4833,145.4667,73.94,87,99,14.9,AU,2023-06-06 16:27:54
492,bocanda,7.0626,-4.4995,78.37,84,99,8.05,CI,2023-06-06 16:27:54
493,kiruna,67.8557,20.2251,38.32,70,75,5.75,SE,2023-06-06 16:27:54
494,puerto aysen,-45.4,-72.7,44.64,87,75,6.91,CL,2023-06-06 16:18:28
495,borger,52.9233,6.7931,54.03,86,22,8.03,NL,2023-06-06 16:27:55
496,och'amch'ire,42.7123,41.4686,63.99,96,95,6.2,GE,2023-06-06 16:27:55
497,mahanoro,-19.9,48.8,69.28,94,41,6.89,MG,2023-06-06 16:27:55
498,san patricio,28.017,-97.5169,90.32,41,14,6.51,US,2023-06-06 16:27:56
499,tashtagol,52.7657,87.8894,60.76,77,5,3.42,RU,2023-06-06 16:27:56
500,vytegra,61.0064,36.4481,44.47,72,43,3.96,RU,2023-06-06 16:27:56
501,homer,59.6425,-151.5483,55.29,60,75,10.0,US,2023-06-06 16:19:36
502,nkove,-7.95,30.85,76.57,56,34,4.23,TZ,2023-06-06 16:27:56
503,moroto,2.5345,34.6666,68.74,69,56,4.9,UG,2023-06-06 16:27:57
504,boryeong,36.3493,126.5977,66.16,94,100,6.29,KR,2023-06-06 16:27:57
505,itabira,-19.6192,-43.2269,59.4,71,0,2.71,BR,2023-06-06 16:24:13
506,khandyga,62.6667,135.6,59.25,71,81,1.25,RU,2023-06-06 16:27:57
507,smara,26.7384,-11.6719,80.28,46,4,16.55,EH,2023-06-06 16:27:58
508,maceio,-9.6658,-35.7353,76.44,88,75,5.75,BR,2023-06-06 16:23:44
509,arnprior,45.4334,-76.3494,70.09,36,91,11.79,CA,2023-06-06 16:27:22
510,port saint john's,-31.6229,29.5448,61.9,63,0,6.91,ZA,2023-06-06 16:27:59
511,pierre,44.3683,-100.351,90.86,30,0,9.22,US,2023-06-06 16:26:22
512,minas de marcona,-15.2119,-75.1103,63.97,62,1,8.88,PE,2023-06-06 16:18:01
513,sinop,41.7711,34.8709,52.86,88,12,4.7,TR,2023-06-06 16:27:59
514,inarajan village,13.2736,144.7484,83.39,85,100,13.22,GU,2023-06-06 16:28:00
515,california,38.3004,-76.5074,80.94,45,0,8.05,US,2023-06-06 16:28:00
516,lembeni,-3.7833,37.6167,63.3,88,20,5.48,TZ,2023-06-06 16:28:00
517,hastings,50.8552,0.5729,53.78,41,0,17.25,GB,2023-06-06 16:28:00
518,talara,-4.5772,-81.2719,84.96,65,0,11.5,PE,2023-06-06 16:28:01
519,cedeira,43.6797,-8.0209,71.04,78,100,13.09,ES,2023-06-06 16:28:01
520,carbonear,47.7332,-53.2148,51.01,97,100,12.93,CA,2023-06-06 16:28:01
521,coyhaique,-45.5752,-72.0662,41.61,75,75,4.61,CL,2023-06-06 16:28:01
522,wanning,18.8003,110.3967,79.9,90,100,12.62,CN,2023-06-06 16:19:28
523,esmeraldas,-19.7625,-44.3139,67.24,48,0,5.7,BR,2023-06-06 16:28:02
524,pacific grove,36.6177,-121.9166,61.52,90,75,8.05,US,2023-06-06 16:27:47
525,magna,40.7091,-112.1016,89.94,24,75,6.91,US,2023-06-06 16:28:02
526,penzance,50.1186,-5.5371,56.77,83,0,10.89,GB,2023-06-06 16:28:03
527,palmas,-10.2128,-48.3603,85.87,54,20,2.3,BR,2023-06-06 16:27:29
528,ardakan,32.31,54.0175,82.45,29,97,17.05,IR,2023-06-06 16:28:03
529,kota bharu,6.1333,102.2386,80.55,89,20,0.0,MY,2023-06-06 16:28:04
530,san juan,-31.5375,-68.5364,68.85,47,78,11.61,AR,2023-06-06 16:21:42
531,poso,-1.3959,120.7524,77.38,82,20,5.46,ID,2023-06-06 16:28:04
532,cholul,21.0167,-89.2833,93.22,39,24,11.63,MX,2023-06-06 16:28:05
533,krutinka,56.0055,71.5113,63.68,76,5,7.47,RU,2023-06-06 16:28:05
534,san jose del guaviare,2.5729,-72.6459,76.64,94,92,1.36,CO,2023-06-06 16:28:05
535,singaraja,-8.112,115.0882,78.44,84,47,3.27,ID,2023-06-06 16:28:06
536,carutapera,-1.195,-46.02,78.01,86,40,6.38,BR,2023-06-06 16:28:06
537,el estor,15.5333,-89.35,86.34,58,100,2.93,GT,2023-06-06 16:28:06
538,muli,2.9167,73.5667,83.64,76,100,12.73,MV,2023-06-06 16:28:06
539,valparaiso,-33.0393,-71.6273,68.23,56,0,11.5,CL,2023-06-06 16:28:07
540,jasper,37.2001,-94.3502,89.24,39,40,10.36,US,2023-06-06 16:28:07
541,morondava,-20.2833,44.2833,73.65,58,0,9.01,MG,2023-06-06 16:28:07
542,darwin,-12.4611,130.8418,71.89,94,0,4.61,AU,2023-06-06 16:28:07
543,hultsfred,57.4882,15.8436,59.38,59,52,3.38,SE,2023-06-06 16:28:08
544,altai,46.3722,96.2583,54.59,45,0,5.01,MN,2023-06-06 16:28:08
545,selkirk,50.1436,-96.8845,89.67,57,57,3.0,CA,2023-06-06 16:18:10
546,ampanihy,-24.7,44.75,65.05,96,0,5.79,MG,2023-06-06 16:28:08
547,thetford,52.4167,0.75,52.48,85,100,11.5,GB,2023-06-06 16:28:09
548,karratha,-20.7377,116.8463,62.69,51,22,11.36,AU,2023-06-06 16:28:09
549,chimbarongo,-34.7,-71.05,56.28,64,100,4.18,CL,2023-06-06 16:28:09
550,zhangatas,43.5667,69.75,77.68,18,1,6.91,KZ,2023-06-06 16:28:09
551,hilvan,37.5869,38.9551,74.28,37,0,13.8,TR,2023-06-06 16:28:10
552,nuku'alofa,-21.1333,-175.2,75.54,88,100,4.61,TO,2023-06-06 16:28:10
553,virginia,37.5481,-77.4467,81.32,40,100,11.5,US,2023-06-06 16:26:04
554,malyye derbety,47.9547,44.6808,60.51,57,7,9.4,RU,2023-06-06 16:28:10
555,koryukivka,51.7688,32.2481,55.36,73,38,5.75,UA,2023-06-06 16:28:11
556,saint-benoit,-21.038,55.7194,72.0,81,12,8.59,RE,2023-06-06 16:28:11
557,fortuna,40.5982,-124.1573,67.93,76,0,10.36,US,2023-06-06 16:19:06
558,sinan,34.8262,126.1086,62.71,86,100,8.21,KR,2023-06-06 16:28:12
559,usogorsk,63.4106,48.6872,41.0,91,26,5.41,RU,2023-06-06 16:28:12
560,archidona,37.0965,-4.3887,63.41,58,100,11.41,ES,2023-06-06 16:28:12
561,guichon,-32.35,-57.2,68.36,77,42,6.44,UY,2023-06-06 16:28:12
562,fremont,37.5483,-121.9886,74.89,62,75,8.05,US,2023-06-06 16:22:47
563,bel ombre,-4.6167,55.4167,82.24,78,40,16.11,SC,2023-06-06 16:28:13
564,kudymkar,59.0173,54.656,50.52,75,97,4.81,RU,2023-06-06 16:28:13
565,qamdo,31.1667,97.2333,36.1,71,6,5.01,CN,2023-06-06 16:28:13
566,vorotynets,56.0603,45.8633,54.14,61,78,5.39,RU,2023-06-06 16:28:15
567,la'ie,21.6477,-157.9253,85.96,71,54,10.71,US,2023-06-06 16:28:15
568,usinsk,65.9939,57.5281,40.12,91,47,9.19,RU,2023-06-06 16:18:27
569,talakan,50.3167,130.3667,55.54,90,98,4.76,RU,2023-06-06 16:28:16
570,sao francisco do sul,-26.2433,-48.6381,69.71,83,40,4.61,BR,2023-06-06 16:28:16
571,behshahr,36.6923,53.5526,72.54,85,100,3.85,IR,2023-06-06 16:28:17
572,aleksandrov gay,50.147,48.5704,58.66,56,3,7.11,RU,2023-06-06 16:28:17
573,mandalgovi,45.7625,106.2708,56.91,48,100,18.77,MN,2023-06-06 16:28:17
574,kibondo,-3.5864,30.7203,63.7,71,100,0.78,TZ,2023-06-06 16:28:17
575,cambridge,43.3601,-80.3127,73.13,30,0,17.27,CA,2023-06-06 16:26:33
576,ciudad lazaro cardenas,17.9583,-102.2,87.96,56,0,12.06,MX,2023-06-06 16:18:48
577,kincardine,56.0667,-3.7167,55.38,82,21,4.92,GB,2023-06-06 16:28:18
578,elbistan,38.2059,37.1983,62.56,64,78,1.74,TR,2023-06-06 16:28:18
579,nyaungdon,17.0333,95.65,78.98,83,100,4.43,MM,2023-06-06 16:24:46
580,coquimbo,-29.9533,-71.3436,60.53,82,40,9.22,CL,2023-06-06 16:28:19
581,nishon tumani,38.694,65.6751,79.05,24,0,4.61,UZ,2023-06-06 16:28:19
582,chu,43.5983,73.7614,68.5,37,49,10.8,KZ,2023-06-06 16:28:20
583,abeche,13.8292,20.8324,77.72,69,100,18.21,TD,2023-06-06 16:19:23
584,imbituba,-28.24,-48.6703,65.12,88,0,8.12,BR,2023-06-06 16:28:20
585,freetown,8.484,-13.2299,82.11,78,75,11.5,SL,2023-06-06 16:23:48
586,san luis,-33.295,-66.3356,65.64,61,91,4.36,AR,2023-06-06 16:28:21
587,avila,40.5833,-5.0,66.65,63,100,6.64,ES,2023-06-06 16:28:21
588,fauske,67.2588,15.3918,41.04,96,100,3.36,NO,2023-06-06 16:28:21
589,saint croix,17.7397,-64.7388,84.65,70,100,10.36,VI,2023-06-06 16:28:22
590,sechura,-5.5569,-80.8222,81.34,62,24,13.49,PE,2023-06-06 16:28:22
591,laguna,38.421,-121.4238,78.31,52,0,13.8,US,2023-06-06 16:28:22
592,tabou,4.423,-7.3528,78.12,87,100,10.2,CI,2023-06-06 16:28:22
593,barcelos,41.5388,-8.6151,73.54,72,100,4.59,PT,2023-06-06 16:28:23
594,soio,-6.1349,12.3689,72.68,89,9,7.9,AO,2023-06-06 16:28:23
595,tyukalinsk,55.8732,72.1967,64.42,76,21,4.43,RU,2023-06-06 16:28:23
596,farafangana,-22.8167,47.8333,68.27,90,4,3.69,MG,2023-06-06 16:28:24
