City_ID,City,Lat,Lng,Max Temp,Humidity,Cloudiness,Wind Speed,Country,Date
0,bogale,16.2833,95.4,78.78,84,99,9.55,MM,2023-06-07 12:44:25
1,jiwani,25.05,61.7417,91.45,56,5,11.45,PK,2023-06-07 12:44:26
2,port elizabeth,-33.918,25.5701,59.31,85,0,17.27,ZA,2023-06-07 12:44:26
3,wailua homesteads,22.0669,-159.378,75.99,89,40,8.05,US,2023-06-07 12:40:18
4,barra,-11.0894,-43.1417,88.3,35,18,3.94,BR,2023-06-07 12:44:26
5,jaleshwar,26.6471,85.8008,93.33,22,9,4.61,NP,2023-06-07 12:44:27
6,tiksi,71.6872,128.8694,34.79,89,73,3.94,RU,2023-06-07 12:44:27
7,blackmans bay,-43.0167,147.3167,56.7,87,100,7.18,AU,2023-06-07 12:44:27
8,lubang,13.8584,120.124,83.64,76,100,5.95,PH,2023-06-07 12:44:28
9,port-aux-francais,-49.35,70.2167,36.99,90,100,25.43,TF,2023-06-07 12:44:28
10,panitian,9.0965,118.0864,79.05,85,94,2.53,PH,2023-06-07 12:44:28
11,egilsstadir,65.2653,-14.3948,55.31,54,0,20.71,IS,2023-06-07 12:44:29
12,butte,39.6499,-121.5677,69.39,64,100,9.22,US,2023-06-07 12:44:29
13,college,64.8569,-147.8028,65.08,55,75,4.61,US,2023-06-07 12:40:35
14,benghazi,32.1167,20.0667,73.44,72,61,19.57,LY,2023-06-07 12:42:37
15,iskateley,67.6803,53.1512,39.56,60,100,10.4,RU,2023-06-07 12:44:30
16,kodiak,57.79,-152.4072,45.91,93,100,3.44,US,2023-06-07 12:40:50
17,puerto ayora,-0.7393,-90.3518,85.96,90,92,8.01,EC,2023-06-07 12:44:30
18,margaret river,-33.95,115.0667,60.06,80,99,16.08,AU,2023-06-07 12:44:31
19,bethel,41.3712,-73.414,68.54,43,100,9.22,US,2023-06-07 12:44:31
20,olonkinbyen,70.9221,-8.7187,33.39,86,99,6.08,SJ,2023-06-07 12:40:19
21,goure,13.9835,10.2704,85.32,37,100,5.79,NE,2023-06-07 12:44:31
22,bad lobenstein,50.4493,11.6381,68.23,89,20,6.64,DE,2023-06-07 12:44:32
23,isafjordur,66.0755,-23.124,46.44,61,75,9.22,IS,2023-06-07 12:44:32
24,korla,41.7597,86.1469,83.64,19,87,7.14,CN,2023-06-07 12:44:32
25,sandnessjoen,66.0217,12.6316,45.12,93,75,9.22,NO,2023-06-07 12:44:33
26,santa rosa,14.3122,121.1114,82.38,95,99,1.74,PH,2023-06-07 12:44:33
27,san patricio,28.017,-97.5169,89.87,48,14,1.74,US,2023-06-07 12:44:33
28,gilgit,35.9221,74.3087,72.64,42,60,4.97,PK,2023-06-07 12:44:33
29,grytviken,-54.2811,-36.5092,38.52,99,100,5.59,GS,2023-06-07 12:40:32
30,iqaluit,63.7506,-68.5145,35.33,93,100,5.75,CA,2023-06-07 12:44:34
31,argo,37.6333,22.7333,73.78,66,99,1.52,GR,2023-06-07 12:44:34
32,richards bay,-28.783,32.0377,71.38,49,0,7.27,ZA,2023-06-07 12:40:49
33,krasnokamensk,50.0979,118.0369,47.62,71,98,8.97,RU,2023-06-07 12:44:36
34,treasure island,27.7692,-82.769,89.15,72,40,11.5,US,2023-06-07 12:44:36
35,thompson,55.7435,-97.8558,77.16,73,75,5.75,CA,2023-06-07 12:44:37
36,mexico,15.0646,120.7198,78.51,89,92,2.73,PH,2023-06-07 12:40:00
37,el porvenir,13.7617,-87.3458,81.73,62,100,3.4,HN,2023-06-07 12:44:38
38,whitehorse,60.7161,-135.0538,51.03,62,75,8.05,CA,2023-06-07 12:44:38
39,burkburnett,34.0979,-98.5706,86.05,52,0,1.99,US,2023-06-07 12:44:38
40,broome,42.2506,-75.833,65.08,51,100,11.5,US,2023-06-07 12:42:21
41,waitangi,-43.9535,-176.5597,50.83,88,100,3.78,NZ,2023-06-07 12:40:19
42,uturoa,-16.7333,-151.4333,80.64,63,38,17.74,PF,2023-06-07 12:44:39
43,adamstown,-25.066,-130.1015,71.4,73,14,13.2,PN,2023-06-07 12:44:39
44,lubuklinggau,-3.3,102.8667,72.93,98,96,2.19,ID,2023-06-07 12:44:39
45,cidreira,-30.1811,-50.2056,77.41,52,61,7.16,BR,2023-06-07 12:44:40
46,arlington heights,42.0884,-87.9806,78.12,49,0,11.5,US,2023-06-07 12:44:40
47,umluj,25.0213,37.2685,89.17,44,0,7.56,SA,2023-06-07 12:44:40
48,sirte,31.2089,16.5887,70.66,76,3,12.28,LY,2023-06-07 12:44:41
49,puerto natales,-51.7236,-72.4875,41.45,70,40,11.5,CL,2023-06-07 12:44:41
50,port mathurin,-19.6833,63.4167,76.95,66,8,20.62,MU,2023-06-07 12:44:41
51,chengde,40.9725,117.9361,57.16,34,39,2.51,CN,2023-06-07 12:44:41
52,mizdah,31.4451,12.9801,79.09,40,97,13.89,LY,2023-06-07 12:44:42
53,fedorovskiy,45.0972,40.9517,59.31,77,40,7.07,RU,2023-06-07 12:44:42
54,ilulissat,69.2167,-51.1,32.02,80,75,10.36,GL,2023-06-07 12:44:42
55,invercargill,-46.4,168.35,41.14,90,69,4.21,NZ,2023-06-07 12:44:43
56,hithadhoo,-0.6,73.0833,82.13,73,56,3.85,MV,2023-06-07 12:44:43
57,griffith,41.5284,-87.4237,79.14,45,0,13.8,US,2023-06-07 12:44:43
58,ushuaia,-54.8,-68.3,40.62,75,40,5.75,AR,2023-06-07 12:40:33
59,badger,64.8,-147.5333,64.99,55,75,4.61,US,2023-06-07 12:44:43
60,inarajan village,13.2736,144.7484,81.57,96,99,12.66,GU,2023-06-07 12:44:44
61,hawaiian paradise park,19.5933,-154.9731,74.79,92,40,4.61,US,2023-06-07 12:39:55
62,albany,42.6001,-73.9662,64.06,59,93,11.07,US,2023-06-07 12:37:21
63,atafu village,-8.5421,-172.5159,83.03,75,60,7.58,TK,2023-06-07 12:44:44
64,jining,35.405,116.5814,75.13,59,74,11.21,CN,2023-06-07 12:44:45
65,haiku-pauwela,20.9219,-156.3051,75.04,74,20,3.44,US,2023-06-07 12:44:45
66,porto novo,6.4965,2.6036,82.22,78,76,9.08,BJ,2023-06-07 12:41:31
67,mejit,10.2753,170.8646,82.17,81,51,14.94,MH,2023-06-07 12:41:53
68,spearfish,44.4908,-103.8594,83.82,48,0,10.36,US,2023-06-07 12:44:46
69,qaqortoq,60.7167,-46.0333,39.61,78,17,4.7,GL,2023-06-07 12:44:46
70,peniche,39.3558,-9.3811,77.07,82,29,17.92,PT,2023-06-07 12:44:46
71,san jose del cabo,23.0589,-109.6977,87.08,59,0,13.8,MX,2023-06-07 12:43:39
72,moissala,8.3404,17.7663,78.3,77,100,3.24,TD,2023-06-07 12:44:47
73,st. john's,47.5649,-52.7093,54.68,96,100,3.44,CA,2023-06-07 12:42:22
74,lerwick,60.1545,-1.1494,53.6,80,100,7.7,GB,2023-06-07 12:44:08
75,bima,-8.4667,118.7167,72.88,95,35,4.36,ID,2023-06-07 12:42:57
76,bushehr,28.9684,50.8385,91.49,49,0,9.22,IR,2023-06-07 12:44:48
77,bilibino,68.0546,166.4372,50.07,52,17,4.59,RU,2023-06-07 12:40:32
78,codrington,-38.2667,141.9667,51.06,94,28,9.15,AU,2023-06-07 12:44:48
79,mil'kovo,55.6078,37.7956,64.6,78,56,8.3,RU,2023-06-07 12:41:01
80,isangel,-19.55,169.2667,69.22,62,61,10.69,VU,2023-06-07 12:42:13
81,port antonio,18.18,-76.4612,89.51,76,86,14.54,JM,2023-06-07 12:44:49
82,georgetown,5.4112,100.3354,84.13,87,20,3.44,MY,2023-06-07 12:41:11
83,ljusdal,61.8288,16.0913,60.75,51,91,1.19,SE,2023-06-07 12:44:49
84,gadzhiyevo,69.2551,33.3362,40.93,72,98,2.57,RU,2023-06-07 12:40:17
85,yacuiba,-22.038,-63.6797,79.57,69,40,5.75,BO,2023-06-07 12:44:50
86,papatowai,-46.5619,169.4708,39.58,90,38,4.72,NZ,2023-06-07 12:44:50
87,howrah,22.5892,88.3103,87.8,79,40,10.36,IN,2023-06-07 12:44:50
88,taghazout,30.5426,-9.7112,79.57,73,100,6.98,MA,2023-06-07 12:44:51
89,ugoofaaru,5.6667,73.0,83.93,82,100,15.1,MV,2023-06-07 12:44:51
90,avarua,-21.2078,-159.775,73.45,78,20,6.91,CK,2023-06-07 12:44:51
91,cabo san lucas,22.8909,-109.9124,87.1,50,0,12.66,MX,2023-06-07 12:44:51
92,bredasdorp,-34.5322,20.0403,56.35,71,65,5.28,ZA,2023-06-07 12:40:30
93,kalianget,-7.05,113.9333,80.46,80,18,11.03,ID,2023-06-07 12:44:52
94,ulladulla,-35.35,150.4667,52.77,88,75,8.21,AU,2023-06-07 12:44:52
95,mogadishu,2.0371,45.3438,79.5,82,95,15.68,SO,2023-06-07 12:44:53
96,winfield,37.2398,-96.9956,85.44,53,0,1.01,US,2023-06-07 12:44:53
97,edinburgh of the seven seas,-37.0676,-12.3116,59.5,83,54,23.78,SH,2023-06-07 12:40:18
98,klyuchi,52.2667,79.1667,73.45,46,70,8.34,RU,2023-06-07 12:40:40
99,singkil,-7.9855,111.4161,75.16,94,93,3.98,ID,2023-06-07 12:44:54
100,san antonio de pale,-1.4014,5.6325,77.34,76,99,12.5,GQ,2023-06-07 12:42:55
101,petropavlovsk-kamchatsky,53.0452,158.6483,39.79,87,75,2.24,RU,2023-06-07 12:44:54
102,piti village,13.4626,144.6933,81.48,88,0,6.91,GU,2023-06-07 12:44:54
103,new norfolk,-42.7826,147.0587,57.88,84,100,1.99,AU,2023-06-07 12:44:54
104,guatrache,-37.6678,-63.5302,65.23,21,79,11.25,AR,2023-06-07 12:44:55
105,vilyuchinsk,52.9306,158.4028,41.27,85,43,3.42,RU,2023-06-07 12:44:55
106,dabakala,8.3667,-4.4333,80.58,77,81,7.63,CI,2023-06-07 12:44:55
107,longyearbyen,78.2186,15.6401,39.04,70,0,4.61,SJ,2023-06-07 12:44:56
108,guerrero negro,27.9769,-114.0611,66.78,56,74,16.44,MX,2023-06-07 12:44:56
109,ribeira grande,38.5167,-28.7,70.2,60,40,10.36,PT,2023-06-07 12:40:39
110,portland,45.5234,-122.6762,73.2,53,75,8.05,US,2023-06-07 12:44:56
111,aleksandrovsk-sakhalinskiy,50.8975,142.1561,49.42,94,86,2.39,RU,2023-06-07 12:44:56
112,parauapebas,-6.0675,-49.9022,89.58,54,40,5.75,BR,2023-06-07 12:44:57
113,airuk,7.2772,168.8203,81.46,81,100,9.57,MH,2023-06-07 12:44:57
114,udachny,66.4167,112.4,48.45,61,63,2.39,RU,2023-06-07 12:44:57
115,igrim,63.1906,64.4162,54.37,56,99,9.75,RU,2023-06-07 12:44:58
116,blackfoot,43.1905,-112.345,77.05,47,72,2.46,US,2023-06-07 12:44:58
117,nuuk,64.1835,-51.7216,36.21,64,75,11.5,GL,2023-06-07 12:42:35
118,saipan,15.1355,145.701,81.3,100,40,11.5,MP,2023-06-07 12:44:59
119,fale old settlement,-9.3852,-171.2468,83.57,69,20,8.46,TK,2023-06-07 12:44:59
120,yellowknife,62.456,-114.3525,48.72,87,100,6.91,CA,2023-06-07 12:40:16
121,polyarnyy,69.1989,33.4478,42.6,67,99,0.94,RU,2023-06-07 12:42:43
122,ust-nera,64.5667,143.2,44.31,97,100,1.32,RU,2023-06-07 12:45:00
123,ambodifotatra,-16.9833,49.85,78.55,71,0,10.16,MG,2023-06-07 12:42:32
124,carnarvon,-24.8667,113.6333,64.08,58,0,14.63,AU,2023-06-07 12:45:00
125,keflavik,64.0049,-22.5624,49.91,71,100,20.71,IS,2023-06-07 12:45:00
126,arrifes,37.7667,-25.7,66.45,68,40,14.97,PT,2023-06-07 12:45:01
127,luderitz,-26.6481,15.1594,56.98,79,0,10.18,NA,2023-06-07 12:45:01
128,talnakh,69.4865,88.3972,47.21,94,99,5.82,RU,2023-06-07 12:45:01
129,machico,32.7,-16.7667,74.03,82,40,19.57,PT,2023-06-07 12:45:02
130,salto de agua,17.6167,-92.3667,92.16,42,76,2.95,MX,2023-06-07 12:45:02
131,pisco,-13.7,-76.2167,71.65,73,100,4.61,PE,2023-06-07 12:45:03
132,coronel dorrego,-38.7187,-61.2873,63.88,20,55,10.36,AR,2023-06-07 12:45:04
133,dudinka,69.4058,86.1778,47.62,88,98,9.33,RU,2023-06-07 12:45:04
134,sitka,57.0531,-135.33,55.29,71,40,5.75,US,2023-06-07 12:45:04
135,pankrushikha,53.8319,80.3406,69.62,56,86,6.31,RU,2023-06-07 12:45:05
136,gaigeturi,33.4644,126.3183,66.25,88,75,5.75,KR,2023-06-07 12:45:05
137,utrik,11.2278,169.8474,81.55,83,34,16.87,MH,2023-06-07 12:45:05
138,nova sintra,14.8667,-24.7167,72.61,72,9,4.41,CV,2023-06-07 12:45:06
139,aasiaat,68.7098,-52.8699,30.9,76,88,12.97,GL,2023-06-07 12:45:06
140,medina,24.4686,39.6142,100.83,8,0,10.36,SA,2023-06-07 12:45:06
141,den burg,53.0542,4.7972,62.01,79,75,13.8,NL,2023-06-07 12:45:07
142,kone,-21.0595,164.8658,62.38,74,1,1.92,NC,2023-06-07 12:45:07
143,perry,37.2506,-83.1999,66.92,94,100,9.26,US,2023-06-07 12:37:58
144,smiths falls,44.9001,-76.0161,59.99,79,99,10.18,CA,2023-06-07 12:45:08
145,fot,47.6177,19.1887,70.59,77,71,4.0,HU,2023-06-07 12:45:08
146,severo-yeniseyskiy,60.3725,93.0408,62.38,80,38,3.94,RU,2023-06-07 12:45:08
147,lubango,-14.9172,13.4925,59.43,46,25,5.08,AO,2023-06-07 12:45:09
148,punta arenas,-53.15,-70.9167,41.11,65,20,25.32,CL,2023-06-07 12:45:09
149,nkhotakota,-12.9274,34.2961,70.7,61,0,2.39,MW,2023-06-07 12:45:09
150,harper,4.375,-7.7169,77.65,89,100,11.48,LR,2023-06-07 12:41:46
151,katav-ivanovsk,54.7531,58.1956,49.35,83,48,3.96,RU,2023-06-07 12:45:10
152,ponte nelle alpi,46.1808,12.2833,73.8,78,92,1.97,IT,2023-06-07 12:45:10
153,sidhauli,27.2833,80.8333,93.56,19,0,4.16,IN,2023-06-07 12:45:10
154,sogod,10.3847,124.9814,78.08,92,97,2.86,PH,2023-06-07 12:45:11
155,waimea,20.0231,-155.6717,68.52,78,15,4.0,US,2023-06-07 12:45:11
156,saint-pierre,-21.3393,55.4781,73.08,68,0,4.61,RE,2023-06-07 12:45:11
157,minas de marcona,-15.2119,-75.1103,66.7,59,5,8.88,PE,2023-06-07 12:45:12
158,vernon,50.2581,-119.2691,77.61,25,0,2.3,CA,2023-06-07 12:45:12
159,ndele,8.4109,20.6473,73.83,84,89,3.65,CF,2023-06-07 12:45:12
160,osorno,-40.5667,-73.15,48.25,87,100,8.05,CL,2023-06-07 12:43:37
161,carauari,-4.8828,-66.8958,82.76,87,67,0.94,BR,2023-06-07 12:45:13
162,ponta delgada,37.7333,-25.6667,68.72,68,40,14.97,PT,2023-06-07 12:45:13
163,hays,30.0502,-98.0336,89.1,57,22,3.0,US,2023-06-07 12:45:13
164,stanley,54.868,-1.6985,53.71,73,75,8.05,GB,2023-06-07 12:41:35
165,port said,31.2565,32.2841,78.78,78,0,4.61,EG,2023-06-07 12:45:14
166,honcho,35.6931,139.9833,76.01,68,95,4.14,JP,2023-06-07 12:45:14
167,hobyo,5.3505,48.5268,80.83,80,99,26.04,SO,2023-06-07 12:45:15
168,constantia,44.1833,28.65,61.7,70,99,9.1,RO,2023-06-07 12:45:15
169,slavyanka,42.8633,131.3847,55.98,98,98,0.6,RU,2023-06-07 12:45:15
170,hamilton,39.1834,-84.5333,76.59,47,40,8.05,US,2023-06-07 12:40:30
171,glace bay,46.1969,-59.957,55.09,92,100,10.36,CA,2023-06-07 12:45:16
172,boende,-0.2167,20.8667,76.68,79,71,1.61,CD,2023-06-07 12:45:16
173,san fernando de apure,7.8878,-67.4724,85.6,73,92,0.74,VE,2023-06-07 12:45:16
174,save,8.0425,2.486,78.1,85,91,7.11,BJ,2023-06-07 12:45:17
175,mishkino,55.3389,63.9175,52.77,90,61,12.06,RU,2023-06-07 12:45:17
176,river falls,44.8614,-92.6238,76.28,57,100,8.12,US,2023-06-07 12:45:17
177,taco pozo,-25.6167,-63.2833,80.47,51,90,6.31,AR,2023-06-07 12:45:18
178,afaahiti,-17.75,-149.2833,73.27,67,72,19.01,PF,2023-06-07 12:45:18
179,donghai,22.9459,115.642,80.51,88,99,4.32,CN,2023-06-07 12:45:18
180,hadibu,12.65,54.0333,85.41,76,100,11.03,YE,2023-06-07 12:45:19
181,hasaki,35.7333,140.8333,67.21,73,100,2.17,JP,2023-06-07 12:45:19
182,tralee,52.2704,-9.7026,70.05,46,0,10.36,IE,2023-06-07 12:45:19
183,westport,41.1415,-73.3579,71.64,48,100,12.66,US,2023-06-07 12:44:43
184,anadyr,64.75,177.4833,41.5,86,75,2.24,RU,2023-06-07 12:45:20
185,alenquer,-1.9417,-54.7383,84.54,72,20,5.84,BR,2023-06-07 12:43:24
186,nicoya,10.1483,-85.452,86.0,71,97,3.91,CR,2023-06-07 12:45:21
187,chinde,26.8418,88.0763,73.04,46,34,4.25,NP,2023-06-07 12:45:22
188,seoni,22.0833,79.5333,86.86,33,57,6.04,IN,2023-06-07 12:45:22
189,mineral wells,32.8085,-98.1128,89.1,51,0,3.44,US,2023-06-07 12:45:23
190,cuyamel,15.6667,-88.2,94.01,62,86,6.29,HN,2023-06-07 12:45:23
191,kepsut,39.6889,28.1522,73.54,88,5,5.86,TR,2023-06-07 12:45:23
192,nar'yan-mar,67.6713,53.087,39.61,60,100,10.38,RU,2023-06-07 12:45:24
193,papao,-17.75,-149.55,74.88,65,76,20.29,PF,2023-06-07 12:45:24
194,rio grande,-32.035,-52.0986,78.91,76,94,5.79,BR,2023-06-07 12:45:24
195,weno,7.4515,151.8468,78.75,94,100,0.0,FM,2023-06-07 12:45:24
196,colonia,50.9333,6.95,71.85,75,76,4.61,DE,2023-06-07 12:40:41
197,jayapura,-2.5333,140.7,78.19,93,64,3.74,ID,2023-06-07 12:45:25
198,antigonish,45.6169,-61.9986,56.82,86,100,7.0,CA,2023-06-07 12:45:25
199,dolores,-36.3132,-57.6792,61.88,59,90,3.85,AR,2023-06-07 12:45:26
200,bardai,11.65,7.2333,72.95,71,100,13.76,NG,2023-06-07 12:45:26
201,cartagena del chaira,1.3349,-74.8429,86.4,56,58,3.98,CO,2023-06-07 12:45:26
202,genhe,50.7833,121.5167,46.49,98,100,4.47,CN,2023-06-07 12:45:27
203,dullewala,31.8359,71.4362,92.08,37,0,7.83,PK,2023-06-07 12:45:27
204,leh,34.1667,77.5833,47.41,62,85,2.82,IN,2023-06-07 12:45:27
205,thies,14.8342,-17.1061,86.65,51,0,17.27,SN,2023-06-07 12:45:28
206,port blair,11.6667,92.75,77.04,94,100,10.36,IN,2023-06-07 12:45:28
207,la mira tumbiscatio,18.6833,-102.2833,96.73,28,2,3.09,MX,2023-06-07 12:45:29
208,sinan,34.8262,126.1086,66.31,94,100,13.04,KR,2023-06-07 12:45:29
209,carutapera,-1.195,-46.02,81.55,86,18,7.36,BR,2023-06-07 12:45:29
210,lebu,-37.6167,-73.65,58.87,61,100,10.85,CL,2023-06-07 12:45:29
211,khandyga,62.6667,135.6,53.6,80,99,3.4,RU,2023-06-07 12:45:30
212,mossel bay,-34.1831,22.146,53.53,78,14,10.09,ZA,2023-06-07 12:45:30
213,santa cruz,-17.8,-63.1667,83.66,65,75,16.11,BO,2023-06-07 12:45:30
214,shenjiamen,29.9576,122.298,70.52,98,96,8.77,CN,2023-06-07 12:45:30
215,la'ie,21.6477,-157.9253,76.44,81,69,3.0,US,2023-06-07 12:45:31
216,kununurra,-15.7667,128.7333,67.98,77,51,2.3,AU,2023-06-07 12:45:31
217,naze,28.3667,129.4833,72.52,93,99,9.64,JP,2023-06-07 12:42:12
218,port douglas,-16.4833,145.4667,71.69,83,82,9.01,AU,2023-06-07 12:44:10
219,newman,37.3138,-121.0208,77.02,10,47,4.16,US,2023-06-07 12:41:53
220,kuanda,56.3161,116.0806,37.92,88,11,2.1,RU,2023-06-07 12:45:32
221,baie-comeau,49.2168,-68.1489,49.68,93,100,18.41,CA,2023-06-07 12:45:18
222,quelimane,-17.8786,36.8883,76.95,78,0,5.75,MZ,2023-06-07 12:45:32
223,peacehaven,50.7927,-0.0065,67.8,62,0,3.0,GB,2023-06-07 12:45:33
224,charters towers,-20.1,146.2667,58.68,91,66,7.9,AU,2023-06-07 12:45:33
225,al kharj,24.155,47.3346,100.98,15,17,6.51,SA,2023-06-07 12:45:33
226,hermanus,-34.4187,19.2345,58.8,79,79,9.04,ZA,2023-06-07 12:40:40
227,grand-bassam,5.2118,-3.7388,80.56,88,99,8.61,CI,2023-06-07 12:45:34
228,zhuanghe,39.7008,122.9911,64.47,92,100,10.27,CN,2023-06-07 12:45:34
229,kiama,-34.6833,150.8667,61.57,80,53,5.99,AU,2023-06-07 12:45:34
230,hirara,24.8,125.2833,78.66,94,20,10.36,JP,2023-06-07 12:45:35
231,yuxia,34.0615,108.6291,70.41,48,26,7.72,CN,2023-06-07 12:45:35
232,pemangkat,1.1667,108.9667,78.94,84,64,3.04,ID,2023-06-07 12:45:35
233,hongqiao,26.7684,112.1081,76.66,91,48,1.81,CN,2023-06-07 12:45:36
234,sidi ifni,29.3797,-10.173,89.35,68,100,3.11,MA,2023-06-07 12:45:36
235,aykhal,66.0,111.5,44.06,88,100,3.04,RU,2023-06-07 12:45:36
236,del rio,29.3627,-100.8968,90.23,58,0,10.36,US,2023-06-07 12:40:51
237,illizi,26.4833,8.4667,93.69,14,13,10.94,DZ,2023-06-07 12:45:37
238,taltal,-25.4,-70.4833,64.02,71,29,3.09,CL,2023-06-07 12:45:37
239,nikolayevka,53.1257,47.2041,56.98,74,59,6.11,RU,2023-06-07 12:45:37
240,east london,-33.0153,27.9116,61.74,67,0,17.27,ZA,2023-06-07 12:41:13
241,san andres,12.5847,-81.7006,89.62,70,20,10.36,CO,2023-06-07 12:45:38
242,al hawatah,13.4167,34.6333,87.78,47,86,0.54,SD,2023-06-07 12:45:38
243,glendive,47.1053,-104.7125,86.7,47,0,3.44,US,2023-06-07 12:45:38
244,nileshwar,12.25,75.1,82.8,78,79,2.46,IN,2023-06-07 12:45:38
245,karlskrona,56.1616,15.5866,70.25,67,0,5.12,SE,2023-06-07 12:45:39
246,bochum,51.4833,7.2167,71.37,77,56,4.0,DE,2023-06-07 12:45:39
247,akrehamn,59.2667,5.1833,56.21,76,0,19.57,NO,2023-06-07 12:45:39
248,necochea,-38.5473,-58.7368,61.29,39,23,10.31,AR,2023-06-07 12:45:39
249,osakarovka,50.565,72.5692,74.35,37,27,16.17,KZ,2023-06-07 12:45:40
250,karratha,-20.7377,116.8463,66.33,62,20,5.5,AU,2023-06-07 12:45:40
251,port alfred,-33.5906,26.891,61.18,89,0,5.01,ZA,2023-06-07 12:45:40
252,kangasniemi,61.9936,26.6479,57.22,53,80,6.82,FI,2023-06-07 12:45:40
253,zinjibar,13.1287,45.3807,89.91,65,24,5.12,YE,2023-06-07 12:45:41
254,west island,-12.1568,96.8225,78.78,78,40,23.02,CC,2023-06-07 12:45:41
255,brady,31.1352,-99.3351,85.35,54,75,4.61,US,2023-06-07 12:45:42
256,conde,-7.2597,-34.9075,83.66,70,75,12.66,BR,2023-06-07 12:45:43
257,tsiombe,-25.3,45.4833,70.34,90,3,10.33,MG,2023-06-07 12:41:32
258,alice springs,-23.7,133.8833,51.35,100,17,8.05,AU,2023-06-07 12:45:44
259,altay,47.8667,88.1167,71.55,34,18,7.94,CN,2023-06-07 12:45:44
260,sigli,5.3848,95.9609,79.5,79,93,5.28,ID,2023-06-07 12:45:44
261,vila franca do campo,37.7167,-25.4333,68.41,78,45,19.01,PT,2023-06-07 12:45:44
262,cavinti,14.2448,121.508,74.64,96,96,1.36,PH,2023-06-07 12:45:45
263,jamestown,42.097,-79.2353,67.51,33,75,17.27,US,2023-06-07 12:45:45
264,levuka,50.1834,-105.4011,82.11,61,75,10.36,CA,2023-06-07 12:45:45
265,crane,31.3974,-102.3501,81.5,42,98,5.19,US,2023-06-07 12:45:45
266,downpatrick,54.3263,-5.7035,60.3,73,34,5.95,GB,2023-06-07 12:45:46
267,issa,53.8705,44.8578,56.05,77,58,6.91,RU,2023-06-07 12:45:46
268,greenville,35.6127,-77.3663,73.35,68,100,0.0,US,2023-06-07 12:44:41
269,nelson bay,-32.7167,152.15,59.09,89,35,7.0,AU,2023-06-07 12:45:46
270,motygino,58.1831,94.7592,64.49,75,13,2.89,RU,2023-06-07 12:45:47
271,flin flon,54.7682,-101.865,76.84,50,20,6.91,CA,2023-06-07 12:37:54
272,geraldton,-28.7667,114.6,52.21,93,100,8.05,AU,2023-06-07 12:45:47
273,acarau,-2.8856,-40.12,83.82,73,20,14.27,BR,2023-06-07 12:42:56
274,cahors,44.4167,1.3333,72.25,71,95,7.07,FR,2023-06-07 12:45:48
275,enewetak,11.3474,162.3373,81.81,80,97,14.81,MH,2023-06-07 12:45:48
276,campina grande do sul,-25.3056,-49.0553,71.98,38,0,3.18,BR,2023-06-07 12:42:34
277,syktyvkar,61.6764,50.8099,49.91,57,0,7.0,RU,2023-06-07 12:45:48
278,kittila,67.6647,24.8936,48.61,66,100,4.61,FI,2023-06-07 12:45:49
279,malango,-2.9627,119.9001,62.29,76,52,2.93,ID,2023-06-07 12:45:49
280,hami,42.8,93.45,86.0,13,40,7.2,CN,2023-06-07 12:41:26
281,chui,-33.6971,-53.4616,63.19,87,100,7.7,UY,2023-06-07 12:45:50
282,shakawe,-18.3667,21.85,67.68,26,0,4.36,BW,2023-06-07 12:45:50
283,conduaga,8.862,117.4893,79.75,84,90,2.84,PH,2023-06-07 12:45:50
284,dhidhdhoo,6.8833,73.1,84.67,79,100,17.74,MV,2023-06-07 12:45:50
285,atar,20.5169,-13.0499,101.57,14,100,12.39,MR,2023-06-07 12:45:51
286,karukh,34.4811,62.5863,79.34,11,0,20.29,AF,2023-06-07 12:45:51
287,beira,-19.8436,34.8389,75.29,94,0,5.75,MZ,2023-06-07 12:45:51
288,walvis bay,-22.9575,14.5053,59.95,72,0,9.22,NA,2023-06-07 12:45:51
289,along,28.1667,94.7667,76.17,73,37,1.86,IN,2023-06-07 12:45:52
290,susuman,62.7833,148.1667,49.96,82,99,0.25,RU,2023-06-07 12:45:52
291,nagamangala,12.8156,76.7575,75.16,76,100,10.16,IN,2023-06-07 12:43:12
292,namibe,-15.1961,12.1522,65.46,78,6,8.72,AO,2023-06-07 12:45:52
293,tejen,37.3834,60.5054,90.54,19,72,14.27,TM,2023-06-07 12:45:53
294,el quebrachal,-25.2833,-64.0667,78.94,53,84,4.97,AR,2023-06-07 12:45:53
295,horta,38.5333,-28.6333,69.44,72,40,10.0,PT,2023-06-07 12:45:53
296,arno,60.1167,18.6333,52.92,59,14,10.98,SE,2023-06-07 12:45:54
297,fraga,41.5229,0.3489,76.91,55,100,12.86,ES,2023-06-07 12:45:54
298,labrador city,52.9463,-66.9114,39.11,93,100,16.11,CA,2023-06-07 12:45:13
299,abashiri,44.0213,144.2697,52.25,98,78,0.98,JP,2023-06-07 12:45:54
300,barberton,-25.7884,31.0532,68.09,55,0,2.86,ZA,2023-06-07 12:45:55
301,kiunga,-6.1219,141.2906,73.69,100,62,2.35,PG,2023-06-07 12:45:55
302,alaghsas,17.0187,8.0168,107.49,19,0,6.91,NE,2023-06-07 12:45:55
303,cole harbour,44.6724,-63.4751,56.17,92,100,13.8,CA,2023-06-07 12:45:55
304,yuzhno-kurilsk,44.0306,145.8556,51.4,100,100,6.42,RU,2023-06-07 12:45:56
305,araripe,-7.2125,-40.0461,82.0,52,71,10.33,BR,2023-06-07 12:45:56
306,ola,59.5833,151.2833,41.86,76,31,1.9,RU,2023-06-07 12:45:56
307,hengyang,26.8881,112.615,77.76,89,44,2.84,CN,2023-06-07 12:45:56
308,novokayakent,42.3937,47.9861,62.94,75,91,4.97,RU,2023-06-07 12:45:57
309,tobelo,1.7284,128.0095,80.56,78,98,3.89,ID,2023-06-07 12:45:57
310,port-vila,-17.7338,168.3219,64.0,100,20,3.44,VU,2023-06-07 12:45:57
311,kapuskasing,49.4169,-82.4331,66.29,32,40,14.97,CA,2023-06-07 12:45:57
312,ad dilam,23.9915,47.1627,100.81,16,17,7.34,SA,2023-06-07 12:45:58
313,namdrik,5.5994,168.1028,82.54,79,100,15.03,MH,2023-06-07 12:45:58
314,general villegas,-35.0328,-63.0125,70.52,38,67,9.19,AR,2023-06-07 12:45:58
315,palora,-1.7,-77.9333,69.91,87,100,0.87,EC,2023-06-07 12:45:59
316,san jose,37.3394,-121.895,68.99,64,75,8.05,US,2023-06-07 12:37:11
317,kingston,17.997,-76.7936,88.75,78,40,21.85,JM,2023-06-07 12:45:59
318,zaozersk,69.4005,32.4476,43.07,62,99,0.89,RU,2023-06-07 12:46:00
319,ponca city,36.707,-97.0856,86.95,52,0,0.0,US,2023-06-07 12:46:00
320,ballycastle,55.2044,-6.243,57.72,75,16,4.63,GB,2023-06-07 12:46:00
321,lichuan,30.3,108.85,57.16,97,32,2.93,CN,2023-06-07 12:46:00
322,kavaratti,10.5669,72.642,86.16,74,92,14.81,IN,2023-06-07 12:46:01
323,quellon,-43.1167,-73.6167,48.45,93,100,16.11,CL,2023-06-07 12:46:01
324,konstantinovka,49.6167,127.9833,55.0,97,76,6.96,RU,2023-06-07 12:46:01
325,remire-montjoly,4.9167,-52.2667,80.64,78,75,6.91,GF,2023-06-07 12:46:01
326,uirauna,-6.5183,-38.4122,86.11,47,75,5.37,BR,2023-06-07 12:46:02
327,mar del plata,-38.0023,-57.5575,63.95,43,0,8.05,AR,2023-06-07 12:45:24
328,labuan bajo,-8.4964,119.8877,73.49,85,13,5.03,ID,2023-06-07 12:46:02
329,thames,-37.1333,175.5333,49.19,87,28,7.61,NZ,2023-06-07 12:46:03
330,tolanaro,-25.0319,46.9987,73.47,88,20,13.8,MG,2023-06-07 12:46:03
331,yorkton,51.2167,-102.4677,80.44,54,0,11.5,CA,2023-06-07 12:46:03
332,otok,45.1467,18.8839,73.33,83,36,2.46,HR,2023-06-07 12:46:04
333,praia da vitoria,38.7333,-27.0667,68.25,77,20,21.97,PT,2023-06-07 12:46:04
334,vilyuysk,63.7553,121.6247,43.56,65,47,4.36,RU,2023-06-07 12:46:04
335,midvagur,62.0511,-7.1939,50.83,76,100,8.05,FO,2023-06-07 12:46:05
336,melfort,52.8667,-104.6177,75.33,41,1,4.61,CA,2023-06-07 12:46:05
337,bel ombre,-4.6167,55.4167,82.24,78,40,14.97,SC,2023-06-07 12:46:05
338,neiafu,-18.65,-173.9833,75.88,88,75,6.91,TO,2023-06-07 12:46:06
339,lata,40.1629,-8.3327,69.08,80,59,3.65,PT,2023-06-07 12:46:06
340,khash,28.2211,61.2158,81.68,26,98,3.56,IR,2023-06-07 12:46:06
341,aoulef,26.9667,1.0833,102.07,12,5,12.91,DZ,2023-06-07 12:46:06
342,happy valley-goose bay,53.3168,-60.3315,43.11,87,100,27.63,CA,2023-06-07 12:46:07
343,punta del este,-34.9667,-54.95,66.31,80,75,6.91,UY,2023-06-07 12:46:07
344,pauini,-7.7136,-66.9764,81.57,87,75,2.71,BR,2023-06-07 12:46:07
345,juneau,58.3019,-134.4197,54.1,89,75,5.75,US,2023-06-07 12:44:26
346,avsyunino,55.5652,39.1232,56.28,90,61,3.8,RU,2023-06-07 12:46:08
347,rongelap,11.1635,166.8941,81.86,82,74,17.34,MH,2023-06-07 12:46:08
348,sucua,-2.4667,-78.1667,74.14,83,100,3.44,EC,2023-06-07 12:46:08
349,lihue,21.9789,-159.3672,77.45,84,40,8.05,US,2023-06-07 12:46:07
350,moose jaw,50.4001,-105.5344,82.65,54,75,10.36,CA,2023-06-07 12:46:09
351,bodaybo,57.8506,114.1933,45.7,79,100,2.01,RU,2023-06-07 12:46:09
352,santa ana de yacuma,-13.75,-65.4333,87.75,62,75,5.75,BO,2023-06-07 12:46:09
353,selfoss,63.9331,-20.9971,52.05,69,64,12.86,IS,2023-06-07 12:46:10
354,huaihua,27.5494,109.9592,74.01,89,8,2.24,CN,2023-06-07 12:46:10
355,l'vovskiy,55.3142,37.5158,64.18,91,69,12.26,RU,2023-06-07 12:46:10
356,kerikeri,-35.2268,173.9474,52.92,84,81,1.01,NZ,2023-06-07 12:46:11
357,taoudenni,22.6783,-3.9836,106.43,8,0,12.66,ML,2023-06-07 12:46:11
358,i-n-salah,27.1935,2.4607,99.86,13,18,15.17,DZ,2023-06-07 12:46:11
359,gadani,25.1185,66.7299,88.02,87,6,9.78,PK,2023-06-07 12:46:11
360,guarapari,-20.6667,-40.4975,75.88,67,0,7.61,BR,2023-06-07 12:46:12
361,imbituba,-28.24,-48.6703,74.86,54,9,4.54,BR,2023-06-07 12:46:12
362,mikun',62.3547,50.0771,41.7,61,88,5.35,RU,2023-06-07 12:46:12
363,samitah,16.596,42.9444,93.58,40,63,2.95,SA,2023-06-07 12:46:12
364,sao joao da barra,-21.6403,-41.0511,82.49,62,0,9.51,BR,2023-06-07 12:43:04
365,callao,-12.0667,-77.15,77.29,65,75,6.91,PE,2023-06-07 12:46:13
366,as sulayyil,20.4607,45.5779,98.85,12,6,8.66,SA,2023-06-07 12:46:13
367,kapa'a,22.0752,-159.319,78.19,87,40,8.05,US,2023-06-07 12:46:13
368,huaicheng,23.9051,112.1931,74.88,98,100,1.92,CN,2023-06-07 12:46:14
369,yung shue wan,22.2333,114.1167,84.67,82,99,1.01,HK,2023-06-07 12:46:14
370,tezu,27.9167,96.1667,83.43,50,12,3.51,IN,2023-06-07 12:46:14
371,higuera de zaragoza,25.95,-109.2833,84.13,45,98,12.8,MX,2023-06-07 12:46:15
372,mao,39.8885,4.2658,72.16,73,20,5.75,ES,2023-06-07 12:45:10
373,lae,-6.7221,146.9847,77.18,82,94,3.71,PG,2023-06-07 12:46:15
374,saudarkrokur,65.7461,-19.6394,55.74,44,97,4.0,IS,2023-06-07 12:46:15
375,duba,27.3513,35.6901,92.75,32,1,5.97,SA,2023-06-07 12:46:16
376,zhangjiakou shi xuanhua qu,40.6103,115.0447,64.67,21,0,4.97,CN,2023-06-07 12:46:16
377,mandan,46.8267,-100.8896,92.37,40,0,4.61,US,2023-06-07 12:46:17
378,lompoc,34.6391,-120.4579,67.69,81,100,8.05,US,2023-06-07 12:46:17
379,ta`u,-14.2336,-169.5144,80.6,79,91,18.52,AS,2023-06-07 12:46:17
380,nadi,-17.8,177.4167,68.0,94,100,5.75,FJ,2023-06-07 12:46:17
381,kataba,13.9833,44.3833,71.8,58,67,1.59,YE,2023-06-07 12:46:18
382,mokrous,51.2333,47.5167,58.05,58,68,6.31,RU,2023-06-07 12:46:18
383,conception bay south,47.4999,-52.9981,55.33,90,100,2.71,CA,2023-06-07 12:45:06
384,sabang,5.8933,95.3214,83.32,77,84,19.53,ID,2023-06-07 12:46:18
385,el calafate,-50.3408,-72.2768,36.03,80,53,4.03,AR,2023-06-07 12:46:19
386,pont rouge,48.8833,-72.0825,55.51,75,100,11.5,CA,2023-06-07 12:46:19
387,cooma,-36.2333,149.1333,53.62,87,100,9.4,AU,2023-06-07 12:46:19
388,port saint john's,-31.6229,29.5448,71.69,43,1,6.58,ZA,2023-06-07 12:46:20
389,villa gesell,-37.2639,-56.973,62.06,56,58,7.2,AR,2023-06-07 12:46:20
390,el granada,37.5027,-122.4694,69.04,73,100,13.8,US,2023-06-07 12:46:20
391,vorgashor,67.5833,63.95,40.14,68,76,8.12,RU,2023-06-07 12:46:20
392,port lincoln,-34.7333,135.8667,57.81,66,83,23.73,AU,2023-06-07 12:46:21
393,scottburgh,-30.2867,30.7532,69.42,43,0,8.52,ZA,2023-06-07 12:46:21
394,kolondieba,11.0882,-6.8926,97.38,27,100,1.88,ML,2023-06-07 12:46:21
395,wuxue,29.8506,115.5525,73.15,85,56,1.48,CN,2023-06-07 12:46:22
396,najaf,31.9985,44.3398,101.16,15,40,4.63,IQ,2023-06-07 12:46:22
397,hanceville,34.0607,-86.7675,86.47,37,22,7.45,US,2023-06-07 12:46:22
398,itoman,26.1247,127.6694,79.18,94,75,11.5,JP,2023-06-07 12:46:23
399,pangkalanbuun,-2.6833,111.6167,74.89,98,100,2.3,ID,2023-06-07 12:46:23
400,djambala,-2.5447,14.7533,75.02,73,92,1.97,CG,2023-06-07 12:46:23
401,bandarban,22.1965,92.2262,83.91,96,100,1.81,BD,2023-06-07 12:46:24
402,yigo village,13.5361,144.8886,79.92,81,40,9.22,GU,2023-06-07 12:46:24
403,changyon,38.2508,125.0961,63.75,95,67,13.69,KP,2023-06-07 12:46:24
404,alesund,62.4723,6.1549,52.72,83,75,4.61,NO,2023-06-07 12:46:24
405,sterling,39.0062,-77.4286,79.11,36,75,10.36,US,2023-06-07 12:42:29
406,west bay,19.3667,-81.4167,87.87,74,20,10.36,KY,2023-06-07 12:46:25
407,akureyri,65.6835,-18.0878,48.13,71,0,12.66,IS,2023-06-07 12:43:47
408,puerto san jose,13.9256,-90.8244,87.04,59,99,5.64,GT,2023-06-07 12:46:25
409,dhuwaran,22.2333,72.8,88.16,65,0,20.62,IN,2023-06-07 12:46:26
410,basoko,1.2391,23.616,76.77,76,44,1.45,CD,2023-06-07 12:46:26
411,kaohsiung,22.6163,120.3133,84.15,78,40,4.61,TW,2023-06-07 12:46:17
412,karystos,38.0133,24.4161,73.0,69,77,8.88,GR,2023-06-07 12:46:27
413,mirpur sakro,24.5474,67.6277,85.1,75,4,15.32,PK,2023-06-07 12:46:27
414,mogok,22.9167,96.5,66.96,95,100,2.68,MM,2023-06-07 12:46:27
415,arraial do cabo,-22.9661,-42.0278,76.96,50,0,12.66,BR,2023-06-07 12:46:28
416,bowie,33.4501,-94.4335,91.47,62,33,4.32,US,2023-06-07 12:40:04
417,vila velha,-20.3297,-40.2925,78.75,79,20,6.91,BR,2023-06-07 12:42:22
418,gijang,35.2442,129.2139,67.73,81,100,8.59,KR,2023-06-07 12:46:29
419,shendi,16.6915,33.4341,96.03,29,27,8.08,SD,2023-06-07 12:46:29
420,flying fish cove,-10.4217,105.6791,76.68,83,100,12.66,CX,2023-06-07 12:46:29
421,dykan'ka,49.825,34.5279,61.92,67,99,2.57,UA,2023-06-07 12:46:29
422,mananjary,-21.2167,48.3333,70.93,90,13,3.11,MG,2023-06-07 12:46:30
423,misratah,32.3754,15.0925,70.63,72,40,12.71,LY,2023-06-07 12:42:51
424,uvira,-3.4067,29.1458,75.09,75,30,0.83,CD,2023-06-07 12:46:31
425,maracas,-13.4411,-40.4308,72.88,58,87,7.87,BR,2023-06-07 12:44:17
426,"laikit, laikit ii (dimembe)",1.4792,124.9735,70.65,100,20,2.3,ID,2023-06-07 12:46:31
427,tamanrasset,22.785,5.5228,96.71,9,40,5.75,DZ,2023-06-07 12:46:06
428,qamdo,31.1667,97.2333,40.82,50,0,1.01,CN,2023-06-07 12:46:32
429,cabedelo,-6.9811,-34.8339,84.87,77,9,12.8,BR,2023-06-07 12:46:32
430,puerto madero,14.7208,-92.4215,88.0,79,75,5.75,MX,2023-06-07 12:46:32
431,hinatuan,8.3722,126.3342,76.44,94,99,6.08,PH,2023-06-07 12:46:33
432,neryungri,56.6709,124.6491,48.16,98,100,2.98,RU,2023-06-07 12:46:33
433,giyani,-23.3025,30.7187,68.54,51,0,5.53,ZA,2023-06-07 12:46:33
434,sault ste. marie,46.5168,-84.3333,66.49,41,0,16.11,CA,2023-06-07 12:46:33
435,cockburn town,21.4612,-71.1419,82.47,85,100,17.54,TC,2023-06-07 12:46:34
436,leskovac,42.9981,21.9461,62.19,96,100,1.41,RS,2023-06-07 12:46:34
437,yanam,16.7333,82.2167,90.05,48,79,2.55,IN,2023-06-07 12:46:34
438,caleta de carquin,-11.0925,-77.6267,75.72,73,53,8.63,PE,2023-06-07 12:46:34
439,bugana,7.9992,7.5836,79.86,79,66,2.84,NG,2023-06-07 12:46:35
440,holualoa,19.6228,-155.9522,75.04,81,20,3.44,US,2023-06-07 12:46:35
441,dickinson,29.4608,-95.0513,90.16,58,20,5.75,US,2023-06-07 12:46:35
442,vadso,70.0744,29.7487,46.56,61,20,9.22,NO,2023-06-07 12:46:36
443,queenstown,-31.8976,26.8753,57.24,22,1,10.33,ZA,2023-06-07 12:46:36
444,hammerfest,70.6634,23.6821,39.65,81,75,3.44,NO,2023-06-07 12:46:36
445,willard,41.0531,-82.7263,72.82,24,18,12.71,US,2023-06-07 12:46:36
446,toliara,-23.35,43.6667,74.26,64,0,6.62,MG,2023-06-07 12:46:37
447,bonthe,7.5264,-12.505,81.23,78,100,8.63,SL,2023-06-07 12:46:37
448,terenos,-20.4422,-54.8603,83.91,32,0,6.91,BR,2023-06-07 12:46:37
449,lincolnton,35.4737,-81.2545,80.19,69,75,7.0,US,2023-06-07 12:46:38
450,mancora,-4.1078,-81.0475,82.71,62,13,8.95,PE,2023-06-07 12:46:38
451,touros,-5.1989,-35.4608,83.71,68,29,14.56,BR,2023-06-07 12:41:45
452,zaraza,9.3503,-65.3245,88.23,60,82,4.72,VE,2023-06-07 12:46:38
453,nizhnesortymskiy,62.4397,71.7603,58.08,71,100,18.75,RU,2023-06-07 12:46:39
454,la ronge,55.1001,-105.2842,71.82,35,0,8.05,CA,2023-06-07 12:46:39
455,mahibadhoo,3.7833,72.9667,83.41,78,84,12.97,MV,2023-06-07 12:46:39
456,revda,56.801,59.9303,47.52,94,23,4.72,RU,2023-06-07 12:46:40
457,mount pearl,47.5166,-52.7813,53.85,96,100,3.44,CA,2023-06-07 12:43:06
458,fisterra,42.9049,-9.2629,68.02,89,100,9.82,ES,2023-06-07 12:46:40
459,faya-largeau,17.9257,19.1043,99.05,24,88,10.45,TD,2023-06-07 12:46:40
460,baker city,44.7749,-117.8344,74.91,53,100,3.44,US,2023-06-07 12:43:45
461,kirakira,-10.4544,161.9205,78.08,86,32,5.99,SB,2023-06-07 12:46:41
462,soe,-9.8607,124.284,63.05,93,86,3.15,ID,2023-06-07 12:46:41
463,porto santo stefano,42.4338,11.1237,73.02,73,1,4.92,IT,2023-06-07 12:46:41
464,kodinsk,58.6881,99.1844,62.74,93,12,2.57,RU,2023-06-07 12:46:42
465,tindouf,27.6711,-8.1474,96.53,24,0,18.79,DZ,2023-06-07 12:46:42
466,mawu,29.5923,107.3139,66.79,95,67,1.01,CN,2023-06-07 12:46:42
467,onguday,50.75,86.15,63.81,51,45,2.86,RU,2023-06-07 12:46:42
468,phalaborwa,-23.943,31.1411,72.68,48,0,5.68,ZA,2023-06-07 12:46:43
469,nacala,-14.5428,40.6728,74.8,74,1,8.01,MZ,2023-06-07 12:46:43
470,tonosho,34.4833,134.1833,67.82,77,100,2.84,JP,2023-06-07 12:46:43
471,hell-ville,-13.4,48.2667,80.82,73,0,4.27,MG,2023-06-07 12:46:43
472,mafinga,-7.25,35.0667,69.35,47,0,6.33,TZ,2023-06-07 12:46:44
473,palmer,42.1584,-72.3287,67.33,52,75,11.5,US,2023-06-07 12:46:44
474,ust'-ilimsk,58.0006,102.6619,56.77,93,70,3.58,RU,2023-06-07 12:46:44
475,kavieng,-2.5744,150.7967,80.38,82,88,3.87,PG,2023-06-07 12:46:45
476,loanda,-8.8368,13.2343,77.0,91,75,8.05,AO,2023-06-07 12:46:04
477,darwin,-12.4611,130.8418,78.78,89,100,4.61,AU,2023-06-07 12:44:03
478,mont-dore,-22.2833,166.5833,69.01,99,53,5.95,NC,2023-06-07 12:46:45
479,macka,40.8186,39.6136,61.95,92,69,3.53,TR,2023-06-07 12:46:45
480,macclenny,30.2822,-82.1221,88.84,60,87,8.08,US,2023-06-07 12:46:46
481,ulsteinvik,62.3432,5.8487,52.7,83,83,5.01,NO,2023-06-07 12:46:46
482,parham,17.0968,-61.7705,85.69,66,20,11.5,AG,2023-06-07 12:46:46
483,puerto el triunfo,13.2833,-88.55,86.92,60,100,5.21,SV,2023-06-07 12:46:47
484,achacachi,-16.05,-68.6833,51.96,26,0,7.49,BO,2023-06-07 12:46:47
485,pacific grove,36.6177,-121.9166,62.02,84,100,5.99,US,2023-06-07 12:46:47
486,panauti,27.5814,85.5124,72.12,64,20,2.3,NP,2023-06-07 12:46:47
487,mandiana,10.6333,-8.6833,90.73,47,98,7.67,GN,2023-06-07 12:46:48
488,uran,18.8769,72.9397,87.76,76,14,8.46,IN,2023-06-07 12:46:48
489,dyat'kovo,53.5978,34.3382,71.46,72,11,3.13,RU,2023-06-07 12:46:48
490,tadine,-21.55,167.8833,68.94,69,33,11.65,NC,2023-06-07 12:46:49
491,shira,54.4911,89.9531,67.23,60,7,3.6,RU,2023-06-07 12:46:49
492,angaur state,6.906,134.13,83.89,75,100,12.8,PW,2023-06-07 12:46:49
493,sierre,46.2919,7.5356,78.28,38,40,6.91,CH,2023-06-07 12:46:50
494,gromiljak,43.9667,18.0531,70.09,91,71,2.15,BA,2023-06-07 12:46:50
495,valle de la pascua,9.2155,-66.0073,84.42,70,70,6.4,VE,2023-06-07 12:42:13
496,island harbour,50.724,-1.2758,75.24,75,0,13.31,GB,2023-06-07 12:46:50
497,labytnangi,66.6572,66.4183,46.08,57,10,6.53,RU,2023-06-07 12:46:51
498,puerto baquerizo moreno,-0.9,-89.6,83.39,70,75,11.5,EC,2023-06-07 12:46:51
499,chonchi,-42.6128,-73.8092,46.11,88,100,10.54,CL,2023-06-07 12:46:51
500,kenora,49.8167,-94.4337,61.77,48,100,12.66,CA,2023-06-07 12:46:51
501,mermoz boabab,14.7065,-17.4758,86.56,74,20,13.8,SN,2023-06-07 12:46:52
502,kasane,-17.8167,25.15,68.9,32,0,8.16,BW,2023-06-07 12:46:52
503,oeiras do para,-2.0031,-49.8544,87.04,68,47,2.33,BR,2023-06-07 12:46:52
504,isiro,2.7739,27.616,70.05,88,96,2.21,CD,2023-06-07 12:46:53
505,xilin hot,43.9667,116.0333,50.54,42,38,3.04,CN,2023-06-07 12:46:53
506,obigarm,38.7173,69.7088,66.33,42,1,6.76,TJ,2023-06-07 12:46:53
507,magadan,59.5667,150.8,43.36,75,20,2.39,RU,2023-06-07 12:46:53
508,berezovyy,51.6667,135.7,51.75,98,95,2.66,RU,2023-06-07 12:46:54
509,naracoorte,-36.9579,140.7383,49.48,89,17,11.5,AU,2023-06-07 12:46:54
510,emmiganur,15.7333,77.4833,88.07,50,90,17.85,IN,2023-06-07 12:46:54
511,alamosa,37.4695,-105.87,58.98,51,0,0.0,US,2023-06-07 12:46:54
512,kangding,30.0513,101.9603,51.49,100,100,3.06,CN,2023-06-07 12:46:55
513,jezowe,50.3749,22.1275,63.68,93,89,5.44,PL,2023-06-07 12:46:55
514,nagqu,31.5,92.0,41.94,69,32,8.61,CN,2023-06-07 12:46:55
515,krasnokamsk,58.0802,55.7541,53.76,91,30,3.11,RU,2023-06-07 12:46:55
516,mariental,-24.6333,17.9667,65.61,18,0,11.77,NA,2023-06-07 12:46:56
517,anna regina,7.2644,-58.5077,83.93,69,54,10.54,GY,2023-06-07 12:46:56
518,lospalos,-8.5186,127.0025,71.6,90,71,9.51,TL,2023-06-07 12:46:56
519,eyl,7.9803,49.8164,80.87,80,86,25.3,SO,2023-06-07 12:46:56
520,hotan,37.0997,79.9269,73.81,27,79,7.4,CN,2023-06-07 12:42:06
521,hilo,19.7297,-155.09,78.28,86,40,5.01,US,2023-06-07 12:46:14
522,ancud,-41.8697,-73.8203,47.37,86,100,14.67,CL,2023-06-07 12:46:57
523,nemuro,43.3236,145.575,51.33,96,85,11.45,JP,2023-06-07 12:46:57
524,aqadyr,48.2553,72.8483,77.5,29,69,11.68,KZ,2023-06-07 12:46:58
525,joshua tree,34.1347,-116.3131,76.33,29,64,5.01,US,2023-06-07 12:46:58
526,navia,43.5354,-6.7194,66.11,95,100,1.66,ES,2023-06-07 12:46:58
527,bozdar wada,27.1828,68.636,100.08,32,0,7.96,PK,2023-06-07 12:46:58
528,tazovsky,67.4667,78.7,44.91,79,93,11.72,RU,2023-06-07 12:42:05
529,punta cana,18.5818,-68.4043,87.57,74,40,17.27,DO,2023-06-07 12:46:59
530,shar,49.5886,81.0453,72.5,41,40,9.62,KZ,2023-06-07 12:46:59
531,salalah,17.0151,54.0924,87.89,74,20,6.91,OM,2023-06-07 12:42:48
532,fortuna,40.5982,-124.1573,59.94,91,100,6.91,US,2023-06-07 12:47:00
533,dunedin,-45.8742,170.5036,38.8,90,4,1.99,NZ,2023-06-07 12:45:40
534,dailekh,28.8333,81.6667,73.18,37,27,5.93,NP,2023-06-07 12:47:00
535,akranes,64.3218,-22.0749,50.05,72,97,16.96,IS,2023-06-07 12:47:01
536,berdigestyakh,62.0989,126.6992,45.84,77,11,4.36,RU,2023-06-07 12:47:01
537,mirnyy,62.5353,113.9611,48.24,70,100,1.99,RU,2023-06-07 12:47:01
538,sur,22.5667,59.5289,95.07,35,12,8.55,OM,2023-06-07 12:47:01
539,angatuba,-23.4897,-48.4128,75.7,41,0,3.56,BR,2023-06-07 12:47:02
540,kapit,2.0167,112.9333,74.57,99,94,1.1,MY,2023-06-07 12:47:02
541,barnard castle,54.5415,-1.919,55.72,77,36,10.33,GB,2023-06-07 12:47:02
542,matoury,4.8483,-52.3317,80.56,78,75,6.91,GF,2023-06-07 12:47:02
543,vetovo,43.7,26.2667,62.78,67,100,7.2,BG,2023-06-07 12:47:03
544,yeppoon,-23.1333,150.7333,60.58,89,31,8.9,AU,2023-06-07 12:47:03
545,kachug,53.9606,105.8817,58.86,76,95,3.53,RU,2023-06-07 12:47:03
546,bandar labuan,5.2888,115.2692,80.96,83,20,0.0,MY,2023-06-07 12:47:04
547,jiangyou,31.7667,104.7167,72.57,59,90,2.77,CN,2023-06-07 12:47:04
548,brookings,44.3114,-96.7984,85.05,55,0,8.05,US,2023-06-07 12:47:04
549,masjed soleyman,31.9364,49.3039,96.3,13,100,4.54,IR,2023-06-07 12:47:05
550,okha,53.5739,142.9478,37.69,89,5,10.31,RU,2023-06-07 12:44:19
551,ha tinh,18.3333,105.9,79.7,88,100,4.65,VN,2023-06-07 12:47:05
552,challapata,-18.9,-66.7667,53.98,10,0,7.67,BO,2023-06-07 12:47:06
553,tura,25.5198,90.2201,82.4,56,90,6.13,IN,2023-06-07 12:47:06
554,sisimiut,66.9395,-53.6735,32.36,68,89,6.33,GL,2023-06-07 12:47:06
555,saint-philippe,-21.3585,55.7679,72.99,83,39,10.36,RE,2023-06-07 12:47:06
556,dryden,49.7833,-92.7503,66.49,39,100,11.5,CA,2023-06-07 12:42:12
557,chichen-itza,20.6667,-88.5667,86.05,70,20,0.0,MX,2023-06-07 12:47:07
558,pangody,65.85,74.4859,53.44,68,84,8.59,RU,2023-06-07 12:43:51
559,amursk,50.2261,136.8994,52.75,98,81,5.86,RU,2023-06-07 12:47:07
560,krotoszyn,51.6987,17.4374,68.95,62,69,5.64,PL,2023-06-07 12:47:08
561,fort bragg,35.139,-79.006,85.82,46,20,9.22,US,2023-06-07 12:47:08
562,frenda,35.0654,1.0495,81.37,29,100,7.36,DZ,2023-06-07 12:47:08
563,liberal,37.0431,-100.921,76.24,57,0,3.44,US,2023-06-07 12:47:08
564,nephi,39.7102,-111.8363,76.55,21,89,9.66,US,2023-06-07 12:47:09
565,mwaya,-9.55,33.95,71.74,67,0,2.75,TZ,2023-06-07 12:47:09
566,fatehpur chaurasi,26.7833,80.2667,95.97,18,36,4.43,IN,2023-06-07 12:47:09
567,gamba,-2.65,10.0,73.92,85,79,6.78,GA,2023-06-07 12:47:10
568,las lomitas,-24.7096,-60.593,88.07,37,0,8.75,AR,2023-06-07 12:47:10
